name,longitude,latitude,population
les Escaldes,1.53414,42.50729,15853
Andorra la Vella,1.52109,42.50779,20430
Umm Al Quwain City,55.55517,25.56473,62747
Ras Al Khaimah City,55.9432,25.78953,351943
Zayed City,53.70522,23.65416,63482
Khawr Fakkan,56.34199,25.33132,40677
Dubai,55.30927,25.07725,2956587
Dibba Al-Fujairah,56.26176,25.59246,30000
Dibba Al-Hisn,56.27291,25.61955,26395
Sharjah,55.41206,25.33737,1324473
Ar Ruways,52.73056,24.11028,16000
Al Fujairah City,56.34141,25.11641,86512
Al Ain City,55.76056,24.19167,55091
Ajman City,55.47878,25.40177,490035
Adh Dhayd,55.88157,25.28812,24716
Abu Dhabi,54.39696,24.45118,603492
Khalifah A City,54.605,24.42588,85374
Bani Yas City,54.62944,24.30978,80498
Musaffah,54.48267,24.35893,243341
Al Shamkhah City,54.70779,24.39268,61710
Reef Al Fujairah City,56.24764,25.14479,82310
Zaranj,61.86037,30.95962,49851
Bazar-e Yakawlang,66.97379,34.73525,65000
Taloqan,69.53451,36.73605,64256
Shindand,62.1474,33.30294,29264
Shibirghan,65.7529,36.66757,55641
Shahrak,64.3052,34.10737,15967
Sar-e Pul,65.93249,36.21544,52121
Sang-e Charak,66.43694,35.84972,15377
Aibak,68.01551,36.26468,47823
Rustaq,69.83045,37.12604,25636
Qarqin,66.04358,37.41853,15018
Qarawul,68.7802,37.21959,24544
Pul-e Khumri,68.71512,35.94458,56369
Paghman,68.95091,34.58787,49157
Nahrin,69.13343,36.0649,22363
Maymana,64.78361,35.92139,75900
Mehtar Lam,70.20944,34.67139,17345
Mazar-e Sharif,67.11087,36.70904,303282
Lashkar Gah,64.37161,31.59382,43934
Kushk,61.95221,33.29565,16952
Kunduz,68.857,36.72895,161902
Khost,69.92041,33.33951,96123
Khulm,67.69826,36.69736,64933
Khash,62.79055,31.52919,15133
Khanabad,69.11279,36.68304,71531
Karukh,62.5863,34.48108,17484
Kandahar,65.71013,31.61332,391190
Kabul,69.17233,34.52813,3043532
Jalalabad,70.45153,34.42647,200331
Jabal os Saraj,69.23778,35.11833,15032
Herat,62.19967,34.34817,272806
Ghormach,63.78264,35.73062,30000
Ghazni,68.42096,33.55391,141000
Gereshk,64.57005,31.82089,43588
Gardez,69.22592,33.59744,103601
Fayzabad,70.58002,37.11664,44421
Farah,62.11638,32.37451,43561
Kafir Qala,61.06667,34.66667,18086
Charikar,69.17139,35.01361,53676
Baraki Barak,68.9492,33.96744,22305
Bamyan,67.82734,34.82156,61863
Balkh,66.8972,36.75635,114883
Baghlan,68.70829,36.13068,108449
Art Khwajah,69.47958,37.08571,18623
Asmar,71.35809,35.03333,15708
Asadabad,71.14697,34.87311,48400
Andkhoy,65.12376,36.95293,29208
Bazarak,69.51519,35.31292,65000
Markaz-e Woluswali-ye Achin,70.70778,34.12583,15098
Saint John's,-61.84329,17.12096,24226
The Valley,-63.05783,18.21704,2035
Sarande,20.00477,39.87534,15147
Pogradec,20.6525,40.9025,61530
Kukes,20.42194,42.07694,17832
Korce,20.78083,40.61861,58259
Gjirokaster,20.13889,40.07583,23437
Elbasan,20.08222,41.1125,100903
Burrel,20.00889,41.61028,15405
Vlore,19.48318,40.4686,89546
Tirana,19.81889,41.3275,374801
Shkoder,19.51258,42.06828,88245
Patos Fshat,19.65083,40.64278,22679
Patos,19.61944,40.68333,60000
Lushnje,19.705,40.94194,41469
Lezhe,19.64361,41.78361,18695
Lac,19.71306,41.63556,24825
Kucove,19.91667,40.80028,18166
Kruje,19.79278,41.50917,21286
Kavaje,19.55694,41.18556,29354
Fier-Cifci,19.56667,40.71667,60995
Fier,19.55611,40.72389,56297
Durres,19.45469,41.32355,122034
Berat,19.95222,40.70583,46866
Kapan,46.40576,39.20755,33160
Goris,46.34168,39.51111,20379
Hats'avan,45.97047,39.46405,15208
Artashat,44.54447,39.96144,20562
Ararat,44.70569,39.83069,28832
Yerevan,44.51361,40.18111,1093485
Vagharshapat,44.29462,40.16557,46540
Stepanavan,44.38531,41.00995,23782
Spitak,44.26731,40.83221,15059
Sevan,44.94171,40.5473,17083
Masis,44.41913,40.06572,18911
Vanadzor,44.4939,40.80456,101098
Gavar,45.12386,40.35398,21680
Hrazdan,44.7662,40.49748,40795
Armavir,44.03815,40.15446,25963
Gyumri,43.84528,40.7942,148381
Ashtarak,44.36204,40.2991,18779
Abovyan,44.63348,40.27368,35673
Saurimo,20.39155,-9.66078,40498
Lucapa,20.74466,-8.41915,20115
Luau,22.22466,-10.70727,18465
Uige,15.06131,-7.60874,60008
Soio,12.36894,-6.1349,67491
N'zeto,12.8666,-7.23116,18352
N'dalatando,14.91162,-9.29782,383100
Mbanza Kongo,14.23833,-6.26667,24220
Malanje,16.34096,-9.54015,87046
Luanda,13.23432,-8.83682,2776168
Caxito,13.66425,-8.57848,28224
Cabinda,12.2,-5.55,66020
Sumbe,13.84371,-11.20605,33277
Mocamedes,12.15222,-15.19611,80149
Menongue,17.69099,-14.6585,32203
Luena,19.91667,-11.78333,21115
Lubango,13.4925,-14.91717,102541
Longonjo,15.24845,-12.90795,24346
Lobito,13.53601,-12.3644,207932
Cuito,16.93333,-12.38333,113624
Huambo,15.73917,-12.77611,226145
Catumbela,13.54677,-12.43002,16977
Catabola,17.28333,-12.15,18855
Camacupa,17.48333,-12.01667,19150
Caala,15.56056,-12.8525,21205
Benguela,13.40547,-12.57626,151226
Zarate,-59.02858,-34.09814,88781
Wanda,-54.56285,-25.96879,15529
Villa Ortuzar,-58.46829,-34.57973,22500
Villa Ocampo,-59.35515,-28.48752,19101
Villa Lugano,-58.47263,-34.67907,114000
Villaguay,-59.02689,-31.8653,32027
Villa Gesell,-56.97304,-37.26394,23257
Villa de Mayo,-58.68059,-34.5108,43405
Tortuguitas,-58.75367,-34.47513,41390
Tigre,-58.57962,-34.42603,31106
Tandil,-59.13316,-37.32167,104325
San Vicente,-54.13333,-26.61667,38247
Santo Tome,-56.04077,-28.54939,22634
Santa Elena,-59.78832,-30.94432,18410
San Pedro,-59.66633,-33.67918,47452
San Pedro,-54.10842,-26.62207,23736
San Luis del Palmar,-58.55454,-27.5079,15347
San Lorenzo,-58.76733,-28.13306,47626
San Javier,-59.9317,-30.57781,15606
San Isidro,-58.52708,-34.4721,45190
Saladas,-58.62591,-28.25384,18349
Retiro,-58.38333,-34.58333,38635
Resistencia,-58.98389,-27.46056,387158
Reconquista,-59.65,-29.15,90184
Quilmes,-58.26374,-34.72904,230000
Puerto Rico,-55.02402,-26.79598,17491
Puerto Iguazu,-54.57355,-25.59912,32038
Puerto Esperanza,-54.61356,-26.02267,15579
Puerto Eldorado,-54.69463,-26.40843,54189
Posadas,-55.89608,-27.36708,323739
Pontevedra,-58.70072,-34.74785,33515
Pirane,-59.10879,-25.73239,19124
Pilar,-58.9142,-34.45866,226517
Paso de los Libres,-57.08771,-29.71251,43805
Obera,-55.11994,-27.48706,56528
Necochea,-58.73961,-38.5545,80478
Muniz,-58.70739,-34.55622,26221
Moron,-58.61956,-34.6509,319934
Monte Caseros,-57.63626,-30.25359,24671
Montecarlo,-54.757,-26.5662,22229
Merlo,-58.72927,-34.66627,244168
Mercedes,-59.43068,-34.65145,52949
Mercedes,-58.07519,-29.18416,30649
Mar del Plata,-57.5562,-38.00042,553935
Lujan,-59.105,-34.57028,81749
Los Polvorines,-58.70596,-34.50316,53354
La Plata,-57.95453,-34.92145,694167
La Paz,-59.64517,-30.74179,24716
Jardin America,-55.22698,-27.04346,24905
Hurlingham,-58.62904,-34.5904,60000
Gualeguaychu,-58.51722,-33.00937,78676
Gualeguay,-59.30966,-33.14156,33120
Goya,-59.26343,-29.13995,70245
Gobernador Virasora,-56.03333,-28.05,28756
General Pacheco,-58.64312,-34.45256,43287
General Jose de San Martin,-59.34158,-26.53743,31758
Garupa,-55.82921,-27.48171,28814
Formosa,-58.17313,-26.18489,221383
Fontana,-59.02392,-27.41813,26745
Federal,-58.78326,-30.95465,16333
Esquina,-59.5289,-30.01476,26399
El Soberbio,-54.19877,-27.29847,19571
Don Torcuato,-58.62729,-34.49459,64867
Dolores,-57.67918,-36.31321,25190
Curuzu Cuatia,-58.0546,-29.79171,36390
Corrientes,-58.8344,-27.46784,339067
Concordia,-58.02089,-31.39296,145210
Concepcion del Uruguay,-58.23217,-32.48463,67895
Colegiales,-58.44924,-34.57365,57000
Chajari,-57.97962,-30.75048,30655
Campana,-58.95919,-34.16327,81612
Buenos Aires,-58.37723,-34.61315,13076300
Boedo,-58.41667,-34.63333,48231
Berazategui,-58.21278,-34.76531,167498
Belgrano,-58.45829,-34.5627,138942
Barranqueras,-58.93925,-27.48132,50823
Barracas,-58.38341,-34.64966,77474
Balcarce,-58.25522,-37.84616,38823
Azul,-59.85854,-36.77698,53941
Avellaneda,-59.65834,-29.11761,23341
Aristobulo del Valle,-54.89626,-27.09625,20683
Zapala,-70.05442,-38.89916,31534
Yerba Buena,-65.31667,-26.81667,50783
Villa Regina,-67.06667,-39.1,31209
Villa Paula de Sarmiento,-68.53838,-31.4933,19092
Villa Nueva,-63.24763,-32.43293,16841
Villa Maria,-63.24016,-32.40751,92453
Villa Dolores,-65.18958,-31.94585,28009
Villa Constitucion,-60.3297,-33.22778,44271
Villa Carlos Paz,-64.49778,-31.42414,69451
Villa Angela,-60.71526,-27.57383,43511
Villa Allende,-64.29538,-31.29458,21683
Viedma,-62.99668,-40.81345,48940
Victoria,-60.15478,-32.61841,25139
Vera,-60.21261,-29.4593,19797
Venado Tuerto,-61.96885,-33.74556,72340
Veinticinco de Mayo,-60.17271,-35.4323,24668
Ushuaia,-68.31591,-54.81084,58028
Unquillo,-64.31615,-31.23073,15369
Tres Isletas,-60.43207,-26.34067,24747
Tres Arroyos,-60.27978,-38.37394,47136
Trelew,-65.30505,-43.24895,93442
Termas de Rio Hondo,-64.85972,-27.49362,27838
Tartagal,-63.80131,-22.51637,60819
Tafi Viejo,-65.25921,-26.73201,48459
Sunchales,-61.56148,-30.94404,18757
Santo Tome,-60.7653,-31.66274,59072
Santiago del Estero,-64.26149,-27.79511,354692
Santa Rosa,-64.28333,-36.61667,111424
Santa Lucia,-68.49503,-31.53987,43565
Santa Fe,-60.70868,-31.64881,489505
San Salvador de Jujuy,-65.29712,-24.19457,305891
San Ramon de la Nueva Oran,-64.32426,-23.13705,74059
San Rafael,-68.33007,-34.61772,109163
San Pedro de Jujuy,-64.86614,-24.23127,58430
San Nicolas de los Arroyos,-60.2108,-33.33425,127742
San Miguel de Tucuman,-65.2226,-26.82414,781023
San Martin de los Andes,-71.35337,-40.15789,23519
San Martin,-68.46814,-33.08103,82549
San Luis,-66.33563,-33.29501,183982
San Justo,-60.59189,-30.78913,21809
San Juan,-68.53639,-31.5375,447048
San Jose de Jachal,-68.74693,-30.24057,21018
San Jorge,-61.85984,-31.89618,16873
San Francisco,-62.08266,-31.42797,59062
San Fernando del Valle de Catamarca,-65.78524,-28.46957,188812
San Antonio Oeste,-64.94769,-40.73193,16966
Salta,-65.41166,-24.7859,512686
Rufino,-62.71262,-34.26827,18361
Rosario,-60.63932,-32.94682,1173533
Rio Tercero,-64.11405,-32.17301,53389
Rio Segundo,-63.9099,-31.6526,18155
Rio Grande,-67.70946,-53.78769,52681
Rio Gallegos,-69.21813,-51.62261,85700
Rio Cuarto,-64.34992,-33.13067,153757
Rio Ceballos,-64.32241,-31.16486,16632
Rawson,-65.10228,-43.30016,26335
Rafaela,-61.4867,-31.25033,88713
Quitilipi,-60.21683,-26.86913,32083
Punta Alta,-62.07359,-38.87588,57209
Puerto Madryn,-65.03851,-42.7692,64555
Presidencia Roque Saenz Pena,-60.43876,-26.78522,81879
Pocito,-68.58333,-31.68333,40969
Plottier,-68.23333,-38.96667,25186
Pergamino,-60.57357,-33.88995,87652
Perez,-60.76791,-32.99835,24436
Parana,-60.52897,-31.73271,262295
Palpala,-65.21163,-24.25647,48199
Olavarria,-60.32254,-36.89272,86320
Nueve de Julio,-60.88313,-35.44437,34718
Neuquen,-68.0591,-38.95161,242092
Morteros,-61.99862,-30.71164,15129
Monteros,-65.49832,-27.16741,23771
Mendoza,-68.82717,-32.89084,876884
Marcos Juarez,-62.10672,-32.6978,24226
Machagai,-60.04955,-26.92614,28070
Lincoln,-61.5302,-34.86649,41808
Libertador General San Martin,-64.78757,-23.80644,49267
Las Brenas,-61.08161,-27.08966,26955
La Rioja,-66.85067,-29.41105,162620
La Falda,-64.48987,-31.08841,15112
La Calera,-64.33529,-31.34377,24796
Laboulaye,-63.39119,-34.12662,19908
Junin,-60.94332,-34.58382,85007
Joaquin V. Gonzalez,-64.12628,-25.11364,19185
Jesus Maria,-64.09424,-30.98153,26825
Granadero Baigorria,-60.71754,-32.85683,32427
Gobernador Galvez,-60.64045,-33.03016,74650
General Villegas,-63.01252,-35.03285,16270
General Roca,-67.58333,-39.03333,73212
General Pinedo,-61.28333,-27.31667,15741
General Pico,-63.75682,-35.65662,57029
General Mosconi,-63.81255,-22.59588,19811
Galvez,-61.22103,-32.02927,18374
Firmat,-61.4832,-33.45937,18294
Famailla,-65.40329,-27.05413,30951
Esquel,-71.31947,-42.91147,28486
Esperanza,-60.93173,-31.4488,35885
Embarcacion,-64.09965,-23.21003,23961
Embalse,-64.41809,-32.18,15900
El Bolson,-71.53336,-41.96051,15537
Diamante,-60.63837,-32.06641,19545
Dean Funes,-64.34984,-30.42036,20164
Cutral-Co,-69.23052,-38.93424,47380
Cruz del Eje,-64.80387,-30.72644,28166
Crespo,-60.30658,-32.02873,18296
Cosquin,-64.46563,-31.24508,19070
Coronel Suarez,-61.93343,-37.45467,27000
Coronda,-60.91983,-31.97263,16975
Cordoba,-64.18105,-31.4135,1428214
Comodoro Rivadavia,-67.49656,-45.86413,140850
Cipolletti,-67.99032,-38.93392,75078
Cinco Saltos,-68.06293,-38.82225,19819
Chivilcoy,-60.01667,-34.89566,54514
Chimbas,-68.53333,-31.48333,73829
Chilecito,-67.4974,-29.16195,42248
Charata,-61.18795,-27.21438,27813
Chacabuco,-60.47389,-34.64167,34587
Centenario,-68.1318,-38.82955,28956
Caucete,-68.28105,-31.65179,33609
Catriel,-67.7956,-37.87907,15169
Castelli,-60.61947,-25.94679,36588
Casilda,-61.16806,-33.04417,32002
Carcarana,-61.15331,-32.85679,15619
Capitan Bermudez,-60.71852,-32.82262,27060
Canada de Gomez,-61.39493,-32.81636,36000
Caleta Olivia,-67.52814,-46.43929,36077
Bell Ville,-62.68873,-32.62591,35105
Bella Vista,-65.30196,-27.03424,15126
Bahia Blanca,-62.27243,-38.71959,276546
Arroyo Seco,-60.50863,-33.15489,20620
Arroyito,-63.05002,-31.42022,19577
Anatuya,-62.83472,-28.46064,20261
Alta Gracia,-64.42826,-31.65292,40384
Allen,-67.82714,-38.97736,26083
Alderetes,-65.13333,-26.81667,38466
Albardon,-68.52556,-31.43722,20413
Aguilares,-65.61427,-27.4338,32494
Balvanera,-58.39766,-34.61032,152198
Villa Santa Rita,-58.481,-34.61082,34000
Villa Mercedes,-65.45783,-33.67571,96781
San Miguel,-58.71229,-34.54335,157532
San Carlos de Bariloche,-71.30822,-41.14557,95394
Adrogue,-58.38384,-34.80041,28265
Ingeniero Pablo Nogues,-58.70652,-34.47775,38470
Jose C. Paz,-58.76813,-34.51541,230208
Pago Pago,-170.7025,-14.27806,11500
Wilten,11.38808,47.25829,18142
Wiener Neustadt,16.23196,47.80485,44820
Vienna,16.37208,48.20849,1691468
Wetzelsdorf,15.39923,47.05293,15687
Wels,14.03333,48.16667,16857
Weinzierl bei Krems,15.6,48.4,24092
Villach,13.85583,46.61028,58882
Telfs,11.06817,47.30707,15229
Strassgang,15.4,47.03333,16268
Stockerau,16.21667,48.38333,16292
Steyr,14.42127,48.04274,38331
Simmering,16.43333,48.18333,101420
Sankt Poelten,15.63333,48.2,21911
Sankt Peter,15.46667,47.05,15187
Sankt Peter,14.34016,46.62978,20320
Sankt Martin,14.28333,46.61667,20000
Salzburg,13.04399,47.79941,153377
Saalfelden am Steinernen Meer,12.848,47.42681,16790
Pradl,11.4152,47.26539,32588
Perchtoldsdorf,16.26607,48.11935,15047
Ottakring,16.3,48.21667,104627
Moedling,16.28921,48.08605,20555
Meidling,16.33333,48.16667,97624
Lustenau,9.65851,47.42642,22821
Linz,14.28611,48.30639,204846
Klosterneuburg,16.32522,48.30521,15614
Klagenfurt am Woerthersee,14.30528,46.62472,90610
Innsbruck,11.39454,47.26266,132493
Innere Stadt,16.37135,48.20906,16450
Hoetting,11.36868,47.26815,35043
Hohenems,9.68694,47.36121,16317
Hietzing,16.2965,48.18623,54265
Hernals,16.26667,48.23333,57546
Graz,15.45,47.06667,222326
Floridsdorf,16.4,48.25,162779
Feldkirch,9.6,47.23306,33420
Eggenberg,15.39871,47.07,20511
Dornbirn,9.74195,47.41427,49278
Bregenz,9.7471,47.50311,29471
Baden,16.23264,48.00543,26286
Amstetten,14.87206,48.1229,15559
Favoriten,16.38233,48.16116,201882
Donaustadt,16.46002,48.2333,187007
Jakomini,15.44984,47.05441,32912
Lend,15.41589,47.08256,31147
Geidorf,15.444,47.08393,24767
Sankt Leonhard,15.45784,47.06924,15853
Andritz,15.42348,47.11387,19020
Gries,15.42421,47.06236,29363
Scarborough,115.76431,-31.89578,15258
Rockingham,115.72978,-32.27682,108022
Perth,115.8614,-31.95224,1896548
Mount Isa,139.49727,-20.72523,22785
Morphett Vale,138.51667,-35.13333,22788
Mandurah,115.7217,-32.5269,83294
Kwinana,115.78128,-32.23013,30433
Gosnells,116.0054,-32.081,19914
Geraldton,114.61459,-28.77897,26872
Gawler,138.74902,-34.60251,20006
Darwin,130.84185,-12.46113,129062
Busselton,115.3455,-33.65249,21898
Bunbury,115.64137,-33.32711,68248
Alice Springs,133.88362,-23.69748,25186
Albany,117.88369,-35.02692,33650
Adelaide,138.59863,-34.92866,1225235
Wodonga,146.88809,-36.12179,18582
Wheelers Hill,145.18333,-37.9,19369
Westmead,150.98768,-33.80383,17835
Werribee,144.66667,-37.9,40143
Warrnambool,142.48799,-38.38176,29176
Warragul,145.93118,-38.15912,15284
Wantirna South,145.21667,-37.88333,19081
Wangaratta,146.32056,-36.35846,17897
Wahroonga,151.11561,-33.71816,17652
Upper Coomera,153.28572,-27.87683,24956
Truganina,144.75,-37.81667,20646
Traralgon,146.5415,-38.19528,24605
Townsville,146.80569,-19.26639,196219
Toowoomba,151.95386,-27.56056,131258
Thornbury,145.00583,-37.75819,18292
Thomastown,145.01667,-37.68333,20441
Templestowe,145.14864,-37.75405,16305
Tarneit,144.65952,-37.83634,34372
Taree,152.45387,-31.91099,16359
Tamworth,150.92905,-31.09048,47597
Sydney,151.20732,-33.86785,4627345
Surry Hills,151.21282,-33.88374,16492
Surfers Paradise,153.42999,-28.00274,31073
Sunbury,144.72607,-37.57742,35449
Strathfield,151.07986,-33.88096,25769
Springvale,145.15274,-37.94853,21572
South Yarra,144.99149,-37.83834,25237
Southport,153.39796,-27.96724,32965
Shepparton,145.39867,-36.38047,31148
Seven Hills,150.93333,-33.78333,19196
Seaford,145.13333,-38.1,16148
Saint Kilda,144.98099,-37.8676,20417
Saint Ives,151.15977,-33.72976,17036
Saint Albans,144.8,-37.73333,35091
Ryde,151.1062,-33.8188,26385
Rowville,145.23333,-37.93333,33160
Rockhampton,150.50595,-23.38032,61724
Rockdale,151.13333,-33.95,15436
Ringwood,145.23333,-37.81667,17242
Richmond,145.00176,-37.81819,27878
Reservoir,145,-37.71667,50092
Quakers Hill,150.88333,-33.73333,26904
Preston,145.01667,-37.75,32499
Port Melbourne,144.94228,-37.83961,15817
Port Macquarie,152.90894,-31.43084,45692
Point Cook,144.75088,-37.91482,49436
Pascoe Vale,144.93333,-37.73333,16850
Palm Beach,153.46584,-28.11694,15205
Pakenham,145.47411,-38.07018,45895
Orange,149.10018,-33.28397,38408
North Melbourne,144.94512,-37.79798,15395
Northcote,145,-37.76667,24115
Noble Park,145.16667,-37.96667,30921
Newcastle,151.7801,-32.92953,308308
Nerang,153.33633,-27.98941,16739
Narre Warren,145.3,-38.03333,26389
Narangba,152.95923,-27.20338,18217
Mulgrave,145.17708,-37.92845,17647
Mount Waverley,145.12939,-37.87709,33149
Mount Martha,145.01667,-38.26667,17788
Mount Gambier,140.77919,-37.8318,25030
Mount Eliza,145.08333,-38.18333,17358
Mount Druitt,150.81667,-33.76667,16682
Mosman,151.23956,-33.83902,27844
Mornington,145.03876,-38.21792,23245
Morayfield,152.94907,-27.10876,21221
South Morang,145.1,-37.65,23874
Mooroolbark,145.31682,-37.78247,21503
Mitcham,145.2,-37.81667,15861
Miranda,151.10005,-34.03857,15111
Mill Park,145.06667,-37.66667,29474
Mildura,142.16251,-34.18551,32936
Merrylands,150.98333,-33.83333,29508
Mernda,145.09555,-37.60075,16370
Melbourne,144.96332,-37.814,4246375
Mascot,151.19347,-33.92598,15985
Maryborough,152.70493,-25.54073,15479
Marrickville,151.15546,-33.90741,26140
Maroubra,151.23333,-33.95,30224
Manly,151.28826,-33.79798,16170
Maitland,151.5574,-32.73308,67132
Mackay,149.16554,-21.15345,74219
Liverpool,150.92588,-33.91938,27545
Lilydale,145.35,-37.75,16209
Lidcombe,151.0397,-33.86436,19791
Launceston,147.13467,-41.43876,106153
Lara,144.40617,-38.02388,15919
Langwarrin,145.16667,-38.16667,22146
Lalor,145.01667,-37.66667,22413
Lakemba,151.07592,-33.91972,16921
Kogarah,151.13564,-33.9681,15705
Keysborough,145.17385,-37.99116,25637
Kew,145.03086,-37.80639,24491
Kensington,151.22241,-33.92019,15021
Hornsby,151.09931,-33.70244,22335
Hobart,147.32941,-42.87936,216656
Hawthorn South,145.0367,-37.8329,21177
Hawthorn,145.0358,-37.81992,23051
Hampton Park,145.25,-38.03333,25377
Griffith,146.05093,-34.28853,18154
Greenvale,144.86667,-37.63333,15338
Greensborough,145.10302,-37.70462,20407
Granville,151.00748,-33.8406,22889
Goulburn,149.72086,-34.75155,22645
Gold Coast,153.43088,-28.00029,591473
Glen Waverley,145.16476,-37.87811,40238
Glenroy,144.93333,-37.7,22127
Glen Iris,145.06667,-37.86667,24838
Glenferrie,145.05,-37.83333,21177
Gladstone,151.25775,-23.84852,30489
Geelong,144.36069,-38.14711,226034
Frankston East,145.13333,-38.13333,34457
Frankston,145.12291,-38.14458,36239
Footscray,144.9,-37.8,16550
Fairfield,150.95,-33.86667,17932
Essendon,144.9109,-37.74981,20310
Epping,145.03333,-37.65,32696
Epping,151.08184,-33.77271,23435
Engadine,151.01266,-34.06564,17141
Eltham,145.15,-37.73333,17829
Eight Mile Plains,153.1,-27.58333,15364
Eastwood,151.08057,-33.79176,17792
Earlwood,151.12506,-33.9209,17592
Dubbo,148.60484,-32.24295,39863
Doreen,145.15,-37.6,20954
Doncaster East,145.14888,-37.78761,28016
Doncaster,145.12373,-37.78828,20728
Deer Park,144.76657,-37.76722,17980
Deception Bay,153.02631,-27.19354,19539
Dandenong,145.2,-37.98333,30193
Croydon,145.28333,-37.8,26502
Cronulla,151.14961,-34.06251,17703
Cranbourne,145.28326,-38.11342,19825
Craigieburn,144.95,-37.6,50069
Corio,144.38333,-38.08333,15215
Coorparoo,153.05826,-27.49325,15965
Coogee,151.25522,-33.9205,15333
Coffs Harbour,153.11351,-30.29626,26672
Coburg,144.96667,-37.75,25846
Clayton,145.11667,-37.91667,20130
Wollongong,150.89345,-34.424,292190
Chatswood,151.18333,-33.8,25140
Cessnock,151.35623,-32.83211,15076
Castle Hill,151,-33.73333,39284
Carrum Downs,145.17248,-38.09968,20444
Carnegie,145.05534,-37.89359,17121
Carlton,144.96667,-37.8,18829
Carlingford,151.04888,-33.78269,24131
Capalaba,153.20287,-27.54333,17027
Canberra,149.12807,-35.28346,367752
Camberwell,145.0694,-37.84205,21744
Cairns,145.76613,-16.92366,153075
Caboolture,152.9511,-27.08465,26341
Burwood,151.1,-33.88333,15935
Burnie,145.90375,-41.05584,19972
Bundaberg,152.3479,-24.86621,70826
Buderim,153.05705,-26.68443,28774
Brunswick,144.96667,-37.76667,24176
Broken Hill,141.4512,-31.9652,18027
Brisbane,153.02809,-27.46794,2189878
Brighton,145.00279,-37.90561,22742
Boronia,145.28333,-37.86667,21857
Blacktown,150.91667,-33.76667,46942
Bexley,151.11667,-33.95,19664
Berwick,145.35,-38.03333,47074
Bentleigh East,145.05301,-37.91928,27368
Bentleigh,145.03544,-37.91806,15892
Bendigo,144.28024,-36.75818,100617
Baulkham Hills,150.99292,-33.75881,36792
Bathurst,149.5806,-33.41665,33110
Banora Point,153.53634,-28.21298,15868
Bankstown,151.03333,-33.91667,32399
Ballarat,143.84957,-37.56622,97937
Bairnsdale,147.61041,-37.82289,15411
Auburn,151.03333,-33.85,37245
Ashfield,151.12274,-33.88834,23749
Armidale,151.66553,-30.50123,23741
Albany Creek,152.96848,-27.35364,15532
Maroochydore,153.09953,-26.66008,18342
Cheltenham,145.04806,-37.96944,21837
Randwick,151.24895,-33.91439,30532
Dee Why,151.28886,-33.7511,21145
Umina Beach,151.31325,-33.52314,16413
Palmerston,130.9833,-12.48602,25000
Hervey Bay,152.76936,-25.28762,52230
Sydney Central Business District,151.20773,-33.86482,25654
Kingsford,151.22749,-33.92399,15338
Springfield Lakes,152.92488,-27.66757,15081
Bracken Ridge,153.03097,-27.3171,16701
Kallangur,152.99226,-27.25204,20222
North Lakes,153.02075,-27.22426,21260
The Gap,152.93861,-27.44187,16371
Caroline Springs,144.73631,-37.74124,24077
Hoppers Crossing,144.7003,-37.88264,38178
Logan City,153.10944,-27.63917,282673
Carindale,153.10236,-27.50578,15418
Parramatta,151.00348,-33.8178,26876
Ferntree Gully,145.29539,-37.88461,26019
Adelaide Hills,138.70735,-34.91119,60394
Canning Vale,115.91814,-32.05799,32593
Glenmore Park,150.6693,-33.79068,22863
Southbank,144.96434,-37.8228,22397
Helensvale,153.33275,-27.91828,16839
Melton West,144.56883,-37.67852,17477
Elwood,144.98215,-37.88214,15122
Balwyn North,145.09386,-37.79086,20015
Malvern East,145.04253,-37.87397,21282
Brighton East,145.01734,-37.90232,15644
Redbank Plains,152.85965,-27.64613,19094
Labrador,153.39815,-27.94402,18326
St Albans,144.80049,-37.74496,37629
Endeavour Hills,145.25866,-37.97695,24116
Kellyville,150.95095,-33.71028,27676
Taylors Lakes,144.78631,-37.69863,15422
Cherrybrook,151.04607,-33.72197,18588
Roxburgh Park,144.92555,-37.62581,21742
Prestons,150.8717,-33.94185,15312
Wyndham Vale,144.62368,-37.89138,23093
Ballajura,115.89549,-31.84062,18408
Willetton,115.88782,-32.05251,17887
Glenwood,150.93284,-33.73333,16040
Cabramatta,150.93446,-33.89743,21634
Campsie,151.10279,-33.9125,24487
Casula,150.89949,-33.95222,15695
Cranebrook,150.7094,-33.7061,15649
Greenacre,151.05563,-33.90034,24361
Greystanes,150.94607,-33.82346,22591
Ellenbrook,115.96936,-31.76737,22209
Alexandra Hills,153.22889,-27.53221,16043
Calamvale,153.04785,-27.62329,16927
Yagoona,151.01996,-33.9049,17908
Highton,144.3114,-38.17058,18388
Pacific Pines,153.31436,-27.93994,16605
Robina,153.39329,-28.07071,23140
Paralowie,138.60819,-34.75705,16386
Baldivis,115.83047,-32.32889,30472
Dianella,115.87186,-31.88822,23034
Morley,115.9099,-31.88775,21134
Thornlie,115.955,-32.06003,22779
Punchbowl,151.05111,-33.92893,20174
Parafield Gardens,138.61077,-34.78254,16872
Hillside,144.74172,-37.69047,16976
St Clair,150.7847,-33.79728,19856
Kirwan,146.72531,-19.30323,21034
Bundoora,145.05967,-37.69825,28828
Forest Lake,152.96883,-27.62563,22581
Sunnybank Hills,153.05388,-27.61025,17842
Rochedale South,153.12332,-27.59521,15073
Cranbourne East,145.29814,-38.11531,15994
Cranbourne North,145.29871,-38.07758,19900
Narre Warren South,145.2923,-38.04369,30132
Dandenong North,145.2081,-37.96649,22225
Frankston South,145.13643,-38.16604,17826
Sunshine West,144.81637,-37.79117,18568
Altona Meadows,144.78367,-37.88413,18874
Hurstville,151.10149,-33.9677,29744
West Pennant Hills,151.04764,-33.7457,16162
Melbourne City Centre,144.96657,-37.81501,60057
Adelaide city centre,138.60334,-34.92873,19820
Wollongong city centre,150.89268,-34.4279,19108
Tanki Leendert,-70.02004,12.53914,21500
San Nicolas,-69.90713,12.43624,15200
Oranjestad,-70.02703,12.52398,29998
Mariehamn,19.93481,60.09726,10682
Xankandi,46.7528,39.8177,53100
Ahmadbayli,48.39158,39.88074,17242
Susa,46.74989,39.76006,18662
Salyan,48.98479,39.59621,36555
Saatli,48.36892,39.93214,87000
Neftcala,49.247,39.3768,18661
Nakhchivan,45.41222,39.20889,64754
Lankaran,48.85062,38.75428,240300
Imishli,48.05995,39.87095,34178
Fizuli,47.14529,39.60094,26765
Jalilabad,48.49186,39.20963,36259
Pushkino,48.545,39.45833,18182
Beylagan,47.61861,39.77556,15599
Astara,48.87498,38.45598,15190
Sirvan,48.929,39.93778,70220
Agdam,46.92736,39.99096,39451
Zaqatala,46.64479,41.6316,18277
Zabrat,49.94174,40.47746,21396
Yevlakh,47.15014,40.61832,127400
Goygol,46.3189,40.58584,17816
Xacmaz,48.80565,41.46426,37175
Ujar,47.65423,40.51902,15741
Terter,46.93161,40.34201,18185
Sumqayit,49.66861,40.58972,265150
Qaracuxur,49.97361,40.39667,72989
Shamkhor,46.0178,40.82975,35421
Shamakhi,48.64137,40.63141,29403
Sheki,47.17056,41.19194,63000
Sabuncu,49.94806,40.4425,20996
Sabirabad,48.47701,40.00869,28075
Qusar,48.4302,41.4275,16022
Quba,48.51341,41.36108,22405
Haciqabul,48.94286,40.03874,23102
Qazax,45.36561,41.09246,18903
Haci Zeynalabdin,49.55861,40.62333,19019
Mingelchaur,47.05953,40.76395,95453
Mastaga,50.00616,40.52983,40092
Mardakan,50.14292,40.49182,15267
Lokbatan,49.73376,40.3256,30694
Kyurdarmir,48.15649,40.34257,19088
Khirdalan,49.75502,40.44808,37949
Yeni Suraxani,50.03598,40.43026,16127
Goycay,47.74219,40.65055,35348
Hovsan,50.08528,40.37444,36293
Ganja,46.36056,40.68278,313300
Divichibazar,48.98712,41.20117,23248
Buzovna,50.11438,40.51903,24795
Biny Selo,50.08686,40.45076,24596
Barda,47.12619,40.37577,37372
Bilajari,49.80566,40.4444,42194
Baku,49.89201,40.37767,1116513
Amirdzhan,49.98361,40.42639,26798
Aghsu,48.40087,40.57028,17209
Agdas,47.4738,40.64699,23528
Agdzhabedy,47.45937,40.05015,34989
Bakixanov,49.96693,40.41894,66686
Zenica,17.90397,44.20169,164423
Visoko,18.17806,43.98889,17890
Velika Kladusa,15.80579,45.18497,19330
Tuzla,18.66709,44.53842,142486
Trebinje,18.34362,42.71197,33178
Travnik,17.66583,44.22637,31127
Sarajevo,18.35644,43.84864,696731
Prijedor,16.71401,44.97991,36347
Mostar,17.80806,43.34333,104518
Lukavac,18.52618,44.54245,44520
Gradacac,18.42764,44.87851,15659
Gracanica,18.3101,44.70307,15758
Gorazde,18.97564,43.66795,17650
Doboj,18.08698,44.73179,27235
Cazin,15.94306,44.96694,21741
Bugojno,17.45083,44.05722,41378
Brcko,18.81012,44.86995,38968
Bosanska Krupa,16.15139,44.8825,15193
Bijeljina,19.21437,44.75874,37692
Bihac,15.87083,44.81694,75641
Banja Luka,17.19386,44.77842,221106
Konjic,17.96082,43.65126,15950
Bridgetown,-59.62021,13.10732,98511
Thakurgaon,88.46989,26.03097,71096
Teknaf,92.29773,20.85829,40557
Tungi,90.40232,23.89154,337579
Sylhet,91.87198,24.89904,237000
Dohar,90.14251,23.59311,45543
Jamalpur,89.94812,24.91965,167900
Shibganj,89.32266,25.00146,378701
Shibganj,88.15638,24.68501,35961
Satkhira,89.07185,22.70817,128918
Sirajganj,89.70802,24.45771,127481
Netrakona,90.72898,24.88352,79016
Narsingdi,90.71768,23.92298,281080
Sandwip,91.45491,22.51409,52152
Shahzadpur,89.5988,24.17687,102420
Ramganj,90.84989,23.1006,55241
Rajshahi,88.60114,24.374,700133
Pirojpur,89.97521,22.57965,54418
Panchagarh,88.55777,26.33338,48531
Patiya,91.979,22.29543,51360
Parbatipur,88.93093,25.66369,48020
Narayanganj,90.50298,23.61352,223622
Nalchiti,90.27195,22.63696,38703
Nagarpur,89.87696,24.05783,238422
Nageswari,89.69153,25.96817,49425
Mymensingh,90.40646,24.75636,225126
Muktagacha,90.25698,24.76484,24684
Mirzapur,90.09841,24.10287,41137
Maulavi Bazar,91.77075,24.48888,57441
Morrelgonj,89.85584,22.45566,31647
Mehendiganj,90.52859,22.82257,39424
Mathba,89.95883,22.28616,29760
Lalmonirhat,89.44595,25.91719,65127
Laksham,91.12143,23.24018,82290
Comilla,91.18503,23.46186,389411
Rangpur,89.25166,25.74664,343122
Kushtia,89.11943,23.9028,135724
Kaliganj,89.13801,23.40964,45631
Jhingergacha,89.09061,23.11134,41957
Joypur Hat,89.02734,25.10147,73068
Ishurdi,89.06573,24.12858,81995
Habiganj,91.41299,24.38044,88760
Gaurnadi,90.22376,22.97372,40519
Gafargaon,90.5585,24.432,34177
Feni,91.3966,23.0144,84028
Raipur,90.76808,23.0391,64652
Sarankhola,89.79113,22.31006,36470
Dhaka,90.40744,23.7104,10356500
Chilmari,89.67097,25.55613,49736
Chhagalnaiya,91.51091,23.02475,39335
Lalmohan,90.73708,22.33774,42220
Khagrachhari,91.97007,23.10787,50364
Chhatak,91.66958,25.03852,39218
Bhatpara Abhaynagar,89.43936,23.01472,42653
Bheramara,88.99234,24.02452,38159
Bhairab Bazar,90.9764,24.0524,105457
Bandarban,92.21946,22.19534,32523
Kalia,89.63094,23.043,40492
Baniachang,91.35787,24.51863,37807
Bajitpur,90.95002,24.21623,34560
Bagerhat,89.79123,22.65657,266388
Badarganj,89.05377,25.67419,32600
Narail,89.49515,23.15509,55112
Tungipara,89.90326,22.89983,62210
Sonargaon,90.61667,23.65,130000
Sarishabari,89.83126,24.75127,81325
Sakhipur,90.16943,24.31988,40869
Raojan,91.91919,22.53511,25708
Phultala,89.51194,22.71673,37985
Palang,90.35076,23.21824,67652
Par Naogaon,88.94875,24.80418,192464
Nabinagar,90.96792,23.88791,31671
Lakshmipur,90.83005,22.9443,61703
Kesabpur,89.21954,22.90725,30926
Hajiganj,90.85508,23.25191,44343
Faridpur,89.84064,23.60612,112187
Dinajpur,88.63779,25.62745,206234
Uttar Char Fasson,90.71275,22.22647,48305
Chattogram,91.83168,22.3384,3920222
Char Bhadrasan,90.22698,23.30916,34423
Bera,89.63262,24.07821,39604
Burhanuddin,90.72391,22.49518,45670
Satkania,92.04955,22.07639,52005
Cox's Bazar,92.00955,21.43973,253788
Khulna,89.56439,22.80979,1342339
Bhola,90.64403,22.68759,99079
Barishal,90.37013,22.70497,202242
Jessore,89.21371,23.16971,243987
Pabna,89.2372,24.00644,186781
Tangail,89.91655,24.24984,180144
Bogra,89.37108,24.85098,210000
Pirgaaj,88.35943,25.85587,34606
Nawabganj,88.27444,24.59025,142361
Madaripur,90.20935,23.17097,84789
Sherpur,90.01751,25.01881,107419
Kishorganj,90.78291,24.43944,90690
Manikchari,91.84128,22.83957,24813
Bhandaria,90.06273,22.48898,30219
Bibir Hat,91.79058,22.68347,89030
Saidpur,88.89169,25.77769,199422
Puthia,88.83431,24.36537,159406
Natore,88.98673,24.41112,369138
Azimpur,90.3854,23.7298,96641
Paltan,90.41426,23.73625,184492
Joymontop,90.16472,23.78789,56000
Zwijndrecht,4.32664,51.21979,18249
Zwevegem,3.33848,50.81268,23358
Zottegem,3.81052,50.86955,24434
Zonhoven,5.36819,50.99064,19922
Zolder,5.30983,51.02455,17289
Zemst,4.46079,50.98318,21096
Zele,4.0403,51.06566,20236
Zedelgem,3.1368,51.14236,21968
Zaventem,4.47298,50.88365,28188
Wondelgem,3.70909,51.08705,23546
Woluwe-Saint-Lambert,4.42912,50.84389,56584
Wilrijk,4.39513,51.16734,41403
Willebroek,4.36019,51.06041,22808
Wevelgem,3.16667,50.8,30954
Wetteren,3.88341,51.00526,22930
Westerlo,4.91544,51.09049,22579
Wervik,3.03854,50.78069,17340
Wavre,4.60138,50.71717,32112
Watermael-Boitsfort,4.41436,50.80154,25157
Waterloo,4.3991,50.71469,29778
Waregem,3.42756,50.88898,35896
Walcourt,4.43796,50.25401,17501
Vise,5.69907,50.7376,17054
Vilvoorde,4.42938,50.92814,36955
Verviers,5.86241,50.58907,52824
Uccle,4.33943,50.80225,82929
Turnhout,4.94471,51.32254,44000
Tubize,4.2009,50.69059,18000
Tournai,3.38932,50.60715,67721
Torhout,3.10085,51.0656,18933
Tongeren,5.46484,50.78054,29816
Tienen,4.9378,50.80745,31743
Tielt,3.32707,50.99931,19299
Tessenderlo,5.08856,51.06513,16574
Tervuren,4.51418,50.82372,20623
Temse,4.21372,51.12794,26054
Stekene,4.03651,51.2099,16989
Stabroek,4.37127,51.33189,17294
Soumagne,5.74679,50.61385,15237
Soignies,4.07129,50.57904,24869
Sint-Truiden,5.18647,50.81679,37859
Sint-Pieters-Leeuw,4.24355,50.77926,30446
Sint-Niklaas,4.1437,51.16509,69010
Sint-Kruis,3.24949,51.21399,16000
Sint-Katelijne-Waver,4.53469,51.06691,19487
Sint-Gillis-Waas,4.12374,51.21914,17658
Sint-Genesius-Rode,4.35754,50.74645,17990
Sint-Andries,3.17891,51.19696,19336
Sint-Amandsberg,3.74943,51.05947,32115
Seraing,5.50115,50.58362,60737
Schoten,4.50268,51.25251,33622
Schilde,4.58336,51.24107,20373
Schaerbeek,4.37737,50.86935,132761
Saint-Nicolas,5.53243,50.62837,22586
Saint-Josse-ten-Noode,4.37282,50.8538,27366
Saint-Gilles,4.34389,50.82763,50221
Saint-Ghislain,3.81886,50.44816,22500
Rotselaar,4.71665,50.95302,15007
Ronse,3.6005,50.74574,24204
Roeselare,3.12269,50.94653,56016
Rixensart,4.52529,50.71229,21616
Riemst,5.60131,50.80995,15809
Ranst,4.56533,51.18983,17405
Quaregnon,3.8653,50.44067,18491
Puurs,4.28844,51.07409,15944
Putte,4.63263,51.05337,15276
Poperinge,2.72659,50.85386,19537
Pont-a-Celles,4.36887,50.50518,15909
Peruwelz,3.59373,50.50819,16647
Peer,5.45952,51.1303,15551
Overijse,4.53461,50.77436,23486
Oupeye,5.6468,50.71184,23594
Oudenaarde,3.60891,50.85168,27935
Oostkamp,3.23128,51.15432,21489
Ostend,2.927,51.21551,69011
Nivelles,4.32848,50.59833,24149
Ninove,4.02657,50.82776,34795
Nijlen,4.67008,51.16096,20792
Neerpelt,5.4427,51.22807,16122
Namur,4.86746,50.4669,106284
Mouscron,3.20639,50.74497,52069
Mortsel,4.45127,51.16697,24525
Morlanwelz-Mariemont,4.24519,50.45502,18233
Montignies-sur-Sambre,4.49109,50.41081,18765
Mons,3.95229,50.45413,91277
Molenbeek-Saint-Jean,4.31248,50.8499,97037
Mol,5.11662,51.19188,32659
Middelkerke,2.82077,51.18532,17789
Merksem,4.44903,51.24623,44435
Merelbeke,3.74621,50.99447,16684
Menen,3.12245,50.79722,31916
Meise,4.32655,50.93934,18497
Mechelen-aan-de-Maas,5.69144,50.96589,15374
Mechelen,4.47762,51.02574,77530
Mariakerke,3.68289,51.07476,17062
Marcinelle,4.44388,50.39216,23696
Marchienne-au-Pont,4.3953,50.40573,15154
Marche-en-Famenne,5.34416,50.22678,16856
Manage,4.23589,50.50312,22196
Maldegem,3.44511,51.20737,22092
Maasmechelen,5.69452,50.96545,36251
Maaseik,5.78379,51.09802,25201
Louvain-la-Neuve,4.61443,50.66829,29521
Lommel,5.31349,51.23074,31993
Lokeren,3.99339,51.10364,41438
Lochristi,3.83194,51.09644,19696
Lille,4.82313,51.24197,15466
Lier,4.57041,51.13128,33272
Liege,5.56749,50.63373,182597
Leuven,4.70093,50.87959,92892
Lessines,3.83579,50.71104,17687
Lede,3.98594,50.96626,16813
Lebbeke,4.13457,51.00464,17372
Lanaken,5.6468,50.89318,24771
La Louviere,4.18785,50.48657,76668
Kortrijk,3.26487,50.82803,73879
Kortenberg,4.54353,50.88982,17774
Kontich,4.44706,51.13213,20290
Koksijde,2.63772,51.11642,21957
Koersel,5.27121,51.05909,18076
Koekelberg,4.33136,50.86117,21984
Knokke-Heist,3.26667,51.35,33781
Kessel-Lo,4.73717,50.88549,30215
Kasterlee,4.96651,51.24118,17765
Kapellen,4.43539,51.31377,26410
Kalmthout,4.47556,51.38442,17485
Jumet,4.43745,50.4422,24510
Jette,4.33419,50.87309,52490
Jambes,4.87166,50.45636,19658
Izegem,3.21378,50.91396,26382
Ixelles,4.36667,50.83333,86671
Ieper,2.88569,50.85114,35089
Huy,5.23284,50.51894,19973
Houthalen,5.37429,51.03427,30050
Hoogstraten,4.76034,51.40029,18524
Hoboken,4.34844,51.17611,34443
Heverlee,4.69597,50.86426,23278
Heusy,5.86618,50.57457,15420
Heusden,5.28013,51.03664,31017
Herzele,3.89014,50.88681,16523
Herve,5.79353,50.64083,16544
Herstal,5.62346,50.66415,36503
Herentals,4.83248,51.17655,25912
Herent,4.67056,50.90861,19218
Helchteren,5.38244,51.05591,30050
Heist-op-den-Berg,4.72827,51.07537,37873
Hasselt,5.33781,50.93106,69222
Harelbeke,3.30935,50.85343,25978
Hamme,4.13705,51.09822,22891
Halle,4.23454,50.73385,34479
Haaltert,4.00093,50.90634,17129
Grivegnee,5.61101,50.62148,21057
Grimbergen,4.37213,50.93409,37000
Gilly,4.4789,50.42449,20043
Geraardsbergen,3.88223,50.77343,30807
Gentbrugge,3.76509,51.03692,15885
Gent,3.71667,51.05,231493
Genk,5.50082,50.965,63666
Gembloux,4.69889,50.56149,21676
Geel,4.98917,51.16557,34697
Ganshoren,4.31531,50.87065,24859
Frameries,3.89603,50.40578,20598
Forest,4.32775,50.81678,56254
Fleurus,4.55006,50.48351,22080
Fleron,5.68062,50.61516,15994
Flemalle-Haute,5.44471,50.59994,25144
Evergem,3.70976,51.11306,31615
Evere,4.39905,50.87441,41667
Eupen,6.03647,50.6279,18029
Etterbeek,4.38835,50.83272,48344
Ekeren,4.41813,51.28087,23300
Eeklo,3.55654,51.18703,19116
Edegem,4.44504,51.15662,21839
Duffel,4.50903,51.09554,16011
Dour,3.77792,50.39583,16861
Dilbeek,4.25972,50.84799,39482
Diksmuide,2.86384,51.03248,15515
Diest,5.05062,50.98923,22516
Diepenbeek,5.41875,50.90769,17699
Deurne,4.46595,51.22134,78747
Destelbergen,3.79899,51.05952,16853
Dendermonde,4.10106,51.02869,43055
Denderleeuw,4.07601,50.88506,16969
Deinze,3.53096,50.98175,29815
Courcelles,4.3747,50.46379,29473
Colfontaine,3.85569,50.4141,19964
Chaudfontaine,5.6341,50.5828,20960
Chatelineau,4.52016,50.41499,17166
Chatelet,4.52826,50.40338,35238
Chasse Royale,3.95001,50.42842,0
Charleroi,4.44448,50.41136,200132
Brussels,4.34878,50.85045,1019022
Brugge,3.22424,51.20892,116709
Brasschaat,4.49182,51.2912,37040
Braine-le-Comte,4.14658,50.60979,20133
Braine-l'Alleud,4.36784,50.68363,37512
Boussu,3.7944,50.43417,20058
Bornem,4.24364,51.09716,19997
Borgerhout,4.43539,51.20957,46087
Boom,4.3717,51.09242,15810
Blauwput,4.72415,50.88587,30215
Blankenberge,3.13227,51.31306,18000
Binche,4.16469,50.41155,32030
Bilzen,5.5184,50.87325,29622
Beveren,4.25633,51.21187,45179
Bevere,3.5873,50.8496,15311
Beringen,5.22606,51.04954,40930
Berchem-Sainte-Agathe,4.29557,50.86567,25162
Berchem,4.43264,51.19021,43511
Beersel,4.3002,50.76589,23228
Beerse,4.85304,51.31927,16208
Balen,5.17027,51.16837,19978
Auderghem,4.43333,50.81667,33984
Ath,3.77801,50.62937,26681
Assebroek,3.2623,51.19367,19772
Asse,4.19836,50.91011,28985
Arlon,5.81667,49.68333,26179
Antwerpen,4.40026,51.22047,459805
Ans,5.52029,50.6623,27297
Anderlecht,4.31454,50.83619,160553
Andenne,5.09513,50.48941,24055
Aarschot,4.83695,50.98715,27656
Aalter,3.44693,51.09017,18802
Aalst,4.0355,50.93604,77534
Zorgo,-0.61527,12.24922,23892
Yako,-2.26075,12.9591,22904
Tougan,-3.0694,13.0725,17590
Titao,-2.06667,13.76667,19131
Tenkodogo,-0.36972,11.78,37658
Reo,-2.47094,12.31963,37535
Po,-1.145,11.16972,17924
Ouahigouya,-2.42158,13.58278,61096
Ouagadougou,-1.53388,12.36566,1086505
Nouna,-3.86305,12.72939,29048
Manga,-1.07306,11.66361,15173
Leo,-2.10654,11.10033,26884
Koupela,-0.35103,12.17864,32052
Koudougou,-2.36272,12.25263,87347
Kongoussi,-1.53472,13.32583,26338
Kombissiri,-1.33644,12.06884,30137
Kokologo,-1.87687,12.19392,25958
Kaya,-1.08444,13.09167,39229
Hounde,-3.51667,11.5,36593
Gourcy,-2.35893,13.20776,16765
Garango,-0.55056,11.8,29076
Fada N'gourma,0.35843,12.06157,33910
Dori,-0.03261,14.0341,37806
Djibo,-1.62554,14.0994,22223
Diapaga,1.78838,12.07305,26013
Dedougou,-3.46075,12.46338,45341
Bousse,-1.89515,12.66121,15868
Boulsa,-0.57469,12.66664,17489
Bobo-Dioulasso,-4.2979,11.17715,360106
Banfora,-4.76667,10.63333,60288
Yambol,26.5,42.48333,80116
Vratsa,23.5625,43.21,64941
Vidin,22.88236,43.99159,54409
Velingrad,23.99155,42.02754,24036
Veliko Turnovo,25.62904,43.08124,66217
Varna,27.91667,43.21667,312770
Targovishte,26.57215,43.2512,37774
Troyan,24.71589,42.89427,21162
Dobrich,27.83333,43.56667,94831
Svishtov,25.35033,43.61875,30157
Svilengrad,26.2,41.76667,19279
Stara Zagora,25.64194,42.43278,143431
Dupnitsa,23.11667,42.26667,34764
Sofia,23.32415,42.69751,1152556
Smolyan,24.71204,41.57439,32069
Sliven,26.32917,42.68583,96368
Silistra,27.26056,44.1171,39715
Shumen,26.92286,43.27064,87283
Sevlievo,25.11361,43.02583,24582
Sandanski,23.28333,41.56667,28510
Samokov,23.5528,42.337,26765
Ruse,25.9534,43.84872,156238
Razgrad,26.51667,43.53333,38285
Rakovski,24.94083,42.27408,15782
Parvomay,25.21667,42.1,17000
Popovo,26.23333,43.35,16571
Plovdiv,24.75,42.15,340494
Pleven,24.61667,43.41667,118675
Petrich,23.20702,41.39846,30722
Peshtera,24.29995,42.03372,18676
Pernik,23.03333,42.6,82467
Pazardzhik,24.33333,42.2,75977
Panagyurishte,24.19021,42.49518,19389
Nova Zagora,26.01667,42.48333,23625
Montana,23.225,43.4125,47445
Lovech,24.71667,43.13333,42211
Lom,23.23677,43.82106,26594
Kyustendil,22.69111,42.28389,48286
Kardzhali,25.36667,41.65,51000
Haskovo,25.55557,41.93415,79699
Harmanli,25.9,41.93333,18931
Kazanlak,25.4,42.61667,47325
Karnobat,26.98333,42.65,19709
Karlovo,24.8,42.63333,30340
Gotse Delchev,23.73333,41.56667,20522
Gorna Oryahovitsa,25.70167,43.12778,32792
Gabrovo,25.33417,42.87472,66175
Dimitrovgrad,25.6,42.05,38015
Chirpan,25.33333,42.2,15109
Burgas,27.46781,42.50606,195966
Botevgrad,23.78333,42.9,20909
Blagoevgrad,23.1,42.01667,71306
Berkovitsa,23.12738,43.23581,15027
Aytos,27.25,42.7,20986
Asparuhovo,27.88823,43.18067,27000
Asenovgrad,24.86667,42.01667,54778
Sitrah,50.62056,26.15472,37657
Madinat `Isa,50.54778,26.17361,38090
Jidd Hafs,50.54778,26.21861,31735
Madinat Hamad,50.50694,26.11528,52718
Dar Kulayb,50.50389,26.06861,65466
Al Muharraq,50.61194,26.25722,97458
Manama,50.58565,26.22787,147074
Ar Rifa',50.555,26.13,79550
Makamba,29.804,-4.1348,19642
Bururi,29.62438,-3.94877,19740
Bujumbura,29.36142,-3.38193,331700
Muramvya,29.6079,-3.2682,18041
Gitega,29.92463,-3.42708,41000
Ruyigi,30.24861,-3.47639,38458
Ngozi,29.8306,-2.9075,21506
Kayanza,29.6293,-2.9221,19443
Muyinga,30.3414,-2.8451,71076
Rutana,29.992,-3.9279,20893
Tchaourou,2.59753,8.88649,20971
Tanguieta,1.26651,10.62118,19833
Save,2.4866,8.03424,97309
Savalou,1.97558,7.92807,30187
Sakete,2.65866,6.73618,30111
Porto-Novo,2.60359,6.49646,234168
Pobe,2.6649,6.98008,32983
Parakou,2.63031,9.33716,163753
Ouidah,2.08506,6.36307,83503
Nikki,3.21075,9.94009,69970
Natitingou,1.37962,10.30416,80892
Malanville,3.38327,11.86819,37117
Lokossa,1.71674,6.63869,86971
Ketou,2.59978,7.36332,22341
Kandi,2.93861,11.13417,109701
Dogbo,1.78073,6.79911,41312
Djougou,1.66598,9.70853,237040
Dassa-Zoume,2.18333,7.75,21672
Cove,2.34017,7.22097,43554
Cotonou,2.41833,6.36536,780000
Come,1.88198,6.40764,29208
Bohicon,2.0667,7.17826,125092
Bembereke,2.66335,10.22827,24006
Bassila,1.6654,9.00814,23616
Banikoara,2.43856,11.29845,22487
Aplahoue,1.68333,6.93333,19862
Allada,2.15138,6.66547,20094
Abomey-Calavi,2.35566,6.44852,385755
Abomey,1.99119,7.18286,82154
Gustavia,-62.84978,17.89618,5988
Hamilton,-64.78303,32.2949,902
Tutong,114.64917,4.80278,19151
Seria,114.32476,4.60637,30097
Kuala Belait,114.2312,4.58361,31178
Bandar Seri Begawan,114.94006,4.89035,64409
Yacuiba,-63.67753,-22.01643,82803
Warnes,-63.16778,-17.5163,22036
Vinto,-66.31681,-17.39141,58739
Villazon,-65.59422,-22.08659,30253
Villa Yapacani,-63.83333,-17.4,18187
Villamontes,-63.46903,-21.26235,18761
Viacha,-68.3,-16.65,86218
Tupiza,-65.71875,-21.44345,22233
Trinidad,-64.9,-14.83333,84259
Tiquipaya,-66.21579,-17.33801,62675
Tarija,-64.72956,-21.53549,159269
Sucre,-65.26274,-19.03332,224838
Sipe Sipe,-66.35737,-17.45419,47000
Santiago del Torno,-63.38118,-17.98674,15543
Santa Cruz de la Sierra,-63.18117,-17.78629,1831434
San Ignacio de Velasco,-60.95,-16.36667,23569
Sacaba,-66.03825,-17.39799,180726
Riberalta,-66.06312,-11.00654,74014
Quillacollo,-66.27838,-17.39228,172405
Punata,-65.83472,-17.54234,15194
Potosi,-65.75306,-19.58361,141251
Oruro,-67.15,-17.98333,208684
Montero,-63.2505,-17.33866,88616
Mizque,-65.34016,-17.94101,30481
Llallagua,-66.58388,-18.42426,28069
La Paz,-68.15,-16.5,2004652
Laja,-68.38333,-16.53333,18023
Huanuni,-66.83583,-18.289,15492
Guayaramerin,-65.3581,-10.8258,36008
Cotoca,-63.05,-17.81667,18347
Colcapirhua,-66.23814,-17.3857,52732
Cochabamba,-66.1568,-17.3895,841276
Cobija,-68.76918,-11.02671,26585
Caranavi,-67.56586,-15.83403,45747
Camiri,-63.51833,-20.03849,27961
Bermejo,-64.33724,-22.73206,35411
Achocalla,-68.16667,-16.58333,19583
Ascencion de Guarayos,-63.18855,-15.89299,18816
San Borja,-66.74954,-14.85195,24610
Kralendijk,-68.26667,12.15,3081
Vitoria do Mearim,-44.87056,-3.46222,15775
Vitoria de Santo Antao,-35.29139,-8.11806,107383
Viseu,-46.14,-1.19667,18958
Conde,-34.9075,-7.25972,15859
Vigia,-48.14167,-0.85833,29229
Vicosa do Ceara,-41.09222,-3.56222,16636
Vicosa,-36.24083,-9.37139,19573
Viana,-45.00361,-3.22028,26689
Varzea Alegre,-40.38333,-5.35,21841
Varjota,-40.47667,-4.19444,16462
Vargem Grande,-43.91583,-3.54306,21419
Valenca do Piaui,-41.74556,-6.4075,15881
Uniao dos Palmares,-36.03194,-9.16278,41178
Uniao,-42.86417,-4.58583,15677
Tuntum,-44.64889,-5.25806,16402
Tucurui,-49.67923,-3.76585,76337
Tucuma,-50.05,-0.18333,15030
Trindade,-40.26778,-7.76194,19313
Trairi,-39.26889,-3.27778,23126
Toritama,-36.05667,-8.00667,23940
Tome Acu,-48.15222,-2.41889,34053
Timon,-42.83667,-5.09417,124427
Timbiras,-43.94056,-4.25528,17875
Timbauba,-35.31833,-7.50528,45121
Tiangua,-40.99167,-3.73222,45696
Teresina,-42.80194,-5.08917,744512
Sao Joao dos Inhamuns,-40.28333,-6,29188
Tamandare,-35.09995,-8.75632,17954
Tabira,-37.53944,-7.59083,16926
Surubim,-35.75472,-7.83306,34580
Sousa,-38.22806,-6.75917,47927
Soure,-48.52333,-0.71667,18212
Solanea,-35.54,-6.755,17030
Sobral,-40.34972,-3.68611,157996
Sirinhaem,-35.11611,-8.59083,40852
Sertania,-37.26444,-8.07361,18190
Serra Talhada,-38.29833,-7.99194,51203
Senador Pompeu,-39.37167,-5.58806,16515
Satuba,-35.82444,-9.56333,15887
Sao Raimundo Nonato,-42.69944,-9.01528,19569
Sao Miguel dos Campos,-36.09361,-9.78111,40890
Sao Miguel do Guama,-47.48333,-1.62667,28265
Sao Mateus do Maranhao,-44.475,-4.04167,28233
Sao Luis do Quitunde,-35.56111,-9.31833,20563
Sao Luis,-44.30278,-2.52972,917237
Sao Lourenco da Mata,-35.01833,-8.00222,88416
Sao Jose do Egito,-37.27444,-7.47889,18218
Sao Jose de Ribamar,-44.05417,-2.56194,27777
Sao Jose de Mipibu,-35.23778,-6.07472,15298
Sao Joao dos Patos,-43.70222,-6.495,19538
Sao Goncalo do Amarante,-38.96833,-3.60722,23583
Sao Felix do Xingu,-51.995,-6.64472,16477
Sao Domingos do Maranhao,-44.38528,-5.57583,18275
Sao Bento,-37.75,-6.28333,24749
Sao Bento,-44.82139,-2.69583,17245
Santa Rita,-34.97806,-7.11389,119893
Santarem,-54.70833,-2.44306,189047
Santa Quiteria do Maranhao,-42.54667,-3.51556,17174
Santa Quiteria,-40.15667,-4.33194,24391
Santana do Ipanema,-37.24528,-9.37833,26146
Santa Luzia,-47.21738,-7.64265,22909
Santa Ines,-45.38,-3.66667,67424
Santa Helena,-45.3,-2.23111,16045
Santa Cruz do Capibaribe,-36.20472,-7.9575,76450
Santa Cruz,-36.02278,-6.22944,27775
Salinopolis,-47.35611,-0.61361,40998
Salgueiro,-39.11917,-8.07417,42152
Russas,-37.97583,-4.94028,39465
Rio Largo,-35.85333,-9.47833,63387
Rio Formoso,-35.16277,-8.66877,15518
Ribeirao,-35.37778,-8.51444,29818
Recife,-34.88111,-8.05389,1478098
Quixeramobim,-39.29278,-5.19917,34321
Quixada,-39.01528,-4.97139,49328
Presidente Dutra,-44.49,-5.29,30330
Santana,-51.18167,-0.05833,83927
Porto Calvo,-35.39833,-9.045,17346
Portel,-50.82111,-1.93556,21315
Pombos,-35.39583,-8.14139,15894
Pombal,-37.80167,-6.77028,21751
Piripiri,-41.77694,-4.27333,44864
Piracuruca,-41.70917,-3.92806,18852
Pinheiro,-45.0825,-2.52139,38893
Pindare Mirim,-45.34333,-3.60833,22933
Pilar,-35.95667,-9.59722,30617
Picos,-41.46694,-7.07694,57495
Petrolina,-40.50083,-9.39861,194650
Jatoba,-38.26889,-9.18306,20575
Pesqueira,-36.69639,-8.35778,41896
Pentecoste,-39.27028,-3.79278,19680
Penalva,-45.17361,-3.29417,17186
Pedro II,-41.45861,-4.42472,22038
Pedra Branca,-39.71722,-5.45417,20072
Paulo Afonso,-38.21472,-9.40611,85350
Paulista,-34.87306,-7.94083,289971
Patos,-37.28,-7.02444,92575
Parnamirim,-35.26278,-5.91556,150343
Parnaiba,-41.77667,-2.90472,138008
Parintins,-56.73583,-2.62833,64428
Parelhas,-36.6575,-6.68778,16377
Paraipaba,-39.14833,-3.43944,18423
Paragominas,-47.48333,-2.96667,69613
Paracuru,-39.03056,-3.41,21196
Palmares,-35.59167,-8.68333,41679
Pacatuba,-38.62028,-3.98417,55291
Pacajus,-38.46056,-4.1725,41558
Ouricuri,-40.08167,-7.8825,29317
Oros,-38.91361,-6.24444,16328
Oriximina,-55.86611,-1.76556,35581
Olinda,-34.85528,-8.00889,366754
Oeiras,-42.13111,-7.02528,21071
Obidos,-55.51806,-1.9175,24970
Nova Russas,-40.56306,-4.70667,21986
Nova Cruz,-35.43389,-6.47806,23166
Nazare da Mata,-35.22778,-7.74167,26485
Natal,-35.20944,-5.795,763043
Murici,-35.94333,-9.30667,20419
Moreno,-35.09222,-8.11861,45237
Morada Nova,-38.3725,-5.10667,37389
Monteiro,-37.12,-7.88944,17726
Monte Alegre,-54.08102,-2.00082,22840
Mombaca,-39.6275,-5.74306,17065
Moju,-48.76889,-1.88389,21510
Mossoro,-37.34417,-5.1875,202005
Mocajuba,-49.50722,-2.58417,16567
Miracema do Tocantins,-48.39167,-9.56722,19634
Maues,-57.71861,-3.38361,22475
Matriz de Camaragibe,-35.53333,-9.15167,18705
Mari,-35.31944,-7.06,17535
Marechal Deodoro,-35.895,-9.71028,50571
Maragogi,-35.2225,-9.01222,16066
Maracanau,-38.62556,-3.87667,193529
Maraba,-49.13232,-5.38146,145860
Mamanguape,-35.12611,-6.83861,27606
Maceio,-35.73528,-9.66583,954991
Macau,-36.63444,-5.115,18070
Macapa,-51.06639,0.03889,338936
Macaiba,-35.35389,-5.85833,40015
Limoeiro do Norte,-38.09806,-5.14556,29449
Limoeiro,-35.45028,-7.87472,42328
Lavras da Mangabeira,-38.96444,-6.75333,17221
Lajedo,-36.32,-8.66361,25261
Lago da Pedra,-45.23824,-4.28674,25996
Lagoa do Itaenga,-35.29028,-7.93611,17719
Juazeiro do Norte,-39.31528,-7.21306,225230
Jose de Freitas,-42.57556,-4.75639,21432
Joao Pessoa,-34.86306,-7.115,650883
Joao Camara,-35.81972,-5.5375,19885
Jaguaruana,-37.78111,-4.83389,21790
Jaguaribe,-38.62194,-5.89056,23065
Jaboatao,-35.00139,-8.18028,702621
Itupiranga,-49.32667,-5.13472,21301
Itacoatiara,-58.44417,-3.14306,64937
Itaporanga,-38.15028,-7.30444,15890
Itapissuma,-34.89222,-7.77639,16673
Itapipoca,-39.57861,-3.49444,55784
Itapecuru Mirim,-44.35861,-3.3925,34943
Itapage,-39.58611,-3.68667,32043
Itaituba,-55.98361,-4.27611,64756
Itaitinga,-38.52806,-3.96944,30938
Itabaiana,-35.3325,-7.32861,19100
Ipueiras,-40.45,-7.03333,17111
Ipubi,-40.14889,-7.65194,16424
Ipu,-40.71083,-4.32222,26678
Ipojuca,-35.06389,-8.39889,53364
Imperatriz,-47.49167,-5.52639,218106
Iguatu,-39.29861,-6.35944,70380
Igarape Miri,-48.95972,-1.975,26837
Igarape Acu,-47.62,-1.12889,24136
Igarassu,-34.90639,-7.83417,86457
Ico,-38.86222,-6.40111,28323
Horizonte,-38.48333,-4.1,51171
Guaraciaba do Norte,-40.7475,-4.16694,18186
Guarabira,-35.49,-6.85472,43749
Guaiuba,-38.63722,-4.03972,21820
Gravata,-35.56472,-8.20111,61249
Granja,-40.82611,-3.12028,25879
Grajau,-46.13861,-5.81944,30217
Goiana,-35.0025,-7.56056,43980
Gloria do Goita,-35.29278,-8.00167,17374
Garanhuns,-36.50216,-8.88202,110085
Gameleira,-35.38667,-8.58444,19423
Fortaleza,-38.54306,-3.71722,2400000
Floriano,-43.0225,-6.76694,48587
Floresta,-38.56861,-8.60111,18100
Eusebio,-38.45056,-3.89,37289
Extremoz,-35.30722,-5.70556,17991
Estreito,-43.25,-5.78333,17647
Esperantina,-42.23361,-3.90167,21044
Esperanca,-35.85722,-7.03306,18817
Escada,-35.22361,-8.35917,48083
Dom Pedro,-44.43857,-5.03749,15570
Demerval Lobao,-42.67639,-5.35833,15265
Delmiro Gouveia,-37.99917,-9.38861,35259
Custodia,-37.64306,-8.0875,18107
Cururupu,-44.86833,-1.82833,22007
Currais Novos,-36.51778,-6.26083,35560
Cupira,-35.95,-8.61667,19096
Crato,-39.40944,-7.23417,88786
Crateus,-40.6775,-5.17833,52933
Coroata,-44.12417,-4.13,34129
Condado,-35.10583,-7.58583,19585
Conceicao do Araguaia,-49.26982,-8.26441,27115
Colinas,-44.24917,-6.02583,25158
Coelho Neto,-43.01278,-4.25667,36184
Codo,-43.88556,-4.45528,83288
Chapadinha,-43.36028,-3.74167,40804
Cha Grande,-35.46167,-8.23833,17112
Ceara Mirim,-35.42556,-5.63444,32667
Caxias,-43.35611,-4.85889,148072
Caucaia,-38.65306,-3.73611,275019
Catole do Rocha,-37.74667,-6.34389,19812
Catende,-35.71667,-8.66667,23322
Castanhal,-47.92639,-1.29389,137406
Cascavel,-38.24194,-4.13306,52357
Caruaru,-35.97611,-8.28333,235371
Carpina,-35.25472,-7.85083,70689
Carolina,-47.46218,-7.33561,16228
Capitao Poco,-47.05944,-1.74639,32704
Capanema,-47.18083,-1.19583,47766
Caninde,-39.31167,-4.35889,42720
Canguaretama,-35.12889,-6.38,18873
Campos Sales,-40.37611,-7.07444,17648
Campo Maior,-42.16861,-4.82778,31739
Campo Alegre,-36.35083,-9.78194,16785
Campina Grande,-35.88111,-7.23056,348936
Camocim,-40.84111,-2.90222,44481
Cameta,-49.49583,-2.24444,45200
Cajueiro,-36.45,-9.71667,15062
Cajazeiras,-38.55528,-6.89028,43913
Caico,-37.09778,-6.45833,54934
Cabrobo,-39.31,-8.51417,16096
Cabo,-35.03333,-8.28333,143105
Cabedelo,-34.83389,-6.98111,54839
Buriti Bravo,-43.83361,-5.83722,17692
Buique,-37.15583,-8.62306,20324
Breves,-50.48028,-1.68222,46473
Brejo Santo,-38.98722,-7.49333,27384
Brejo da Madre de Deus,-36.37111,-8.14583,27369
Braganca,-46.76556,-1.05361,57163
Bom Conselho,-36.67972,-9.16972,27800
Boa Viagem,-39.73222,-5.1275,24671
Bezerros,-35.79694,-8.23333,51436
Benevides,-48.24472,-1.36139,49794
Belo Jardim,-36.42417,-8.33556,49922
Belem,-35.53333,-6.69167,15550
Belem,-48.50444,-1.45583,1407737
Beberibe,-38.13056,-4.17972,37025
Bayeux,-34.93222,-7.125,91056
Baturite,-38.88472,-4.32861,22417
Barreiros,-35.18639,-8.81833,35565
Barreirinhas,-42.82591,-2.75556,17437
Barras,-42.29444,-4.24444,21597
Barra do Corda,-45.24333,-5.50556,86662
Barcarena,-48.62583,-1.50583,29871
Barbalha,-39.30417,-7.31111,33943
Balsas,-46.03556,-7.5325,68056
Bacabal,-44.79167,-4.29167,72372
Augusto Correa,-46.635,-1.02167,16279
Atalaia,-36.02278,-9.50194,18908
Areia Branca,-37.13694,-4.95611,18372
Arcoverde,-37.05389,-8.41889,57163
Araripina,-40.49833,-7.57611,38569
Arari,-44.78,-3.45361,16777
Arapiraca,-36.66111,-9.7525,166562
Araguaina,-48.20722,-7.19111,105019
Aracati,-37.76972,-4.56167,44293
Aquiraz,-38.39111,-3.90139,65116
Apodi,-37.79889,-5.66417,16757
Ananindeua,-48.37222,-1.36556,433956
Amaraji,-35.4525,-8.38306,16660
Altos,-42.46,-5.03806,28768
Altamira,-52.20639,-3.20333,70888
Almeirim,-52.58167,-1.52333,20464
Alenquer,-54.73833,-1.94167,26290
Alagoa Grande,-35.63,-7.15833,16406
Aguas Belas,-37.12306,-9.11139,22563
Agua Preta,-35.53056,-8.7075,16444
Afogados da Ingazeira,-37.63917,-7.75083,25060
Acu,-36.90861,-5.57667,36125
Acopiara,-39.4525,-6.09528,24561
Acarau,-40.12,-2.88556,28389
Abreu e Lima,-34.90278,-7.91167,81959
Abaetetuba,-48.8825,-1.71806,78050
Xique Xique,-42.72815,-10.82294,35433
Xanxere,-52.40417,-26.87694,32957
Votuporanga,-49.97278,-20.42278,69863
Votorantim,-47.43778,-23.54667,99390
Volta Redonda,-44.10417,-22.52306,249580
Vitoria da Conquista,-40.83944,-14.86611,253137
Vitoria,-40.33778,-20.31944,312656
Visconde do Rio Branco,-42.84056,-21.01028,29009
Viradouro,-48.29694,-20.87306,17172
Vinhedo,-46.97528,-23.02972,56492
Vila Velha,-40.2925,-20.32972,394930
Videira,-51.15167,-27.00833,42440
Vicosa,-42.88194,-20.75389,68680
Viana,-40.49611,-20.39028,55122
Viamao,-51.02333,-30.08111,285269
Vespasiano,-43.92333,-19.69194,94749
Veranopolis,-51.54944,-28.93611,19861
Vera Cruz,-41.03333,-12.63333,30556
Wenceslau Braz,-49.80278,-23.87389,15726
Venancio Aires,-52.19194,-29.60639,40627
Vazante,-46.90778,-17.98694,15459
Vassouras,-43.6625,-22.40389,21174
Varzea Paulista,-46.82833,-23.21139,110936
Varzea Grande,-56.1325,-15.64667,249752
Varzea da Palma,-44.73367,-17.5976,28706
Varginha,-45.43028,-21.55139,116571
Vargem Grande do Sul,-46.89361,-21.83222,36213
Valparaiso,-50.86833,-21.22778,15938
Valinhos,-46.99583,-22.97056,88630
Valenca,-43.70028,-22.24556,61144
Valenca,-39.07306,-13.37028,63231
Vacaria,-50.93389,-28.51222,56765
Uruguaiana,-57.08833,-29.75472,123480
Urucuca,-39.28444,-14.59306,24409
Uruacu,-49.14083,-14.52472,30088
Uniao da Vitoria,-51.08639,-26.23,48741
Unai,-46.90611,-16.3575,60202
Una,-39.07528,-15.29333,22613
Umuarama,-53.325,-23.76639,107319
Uberlandia,-48.27722,-18.91861,563536
Uberaba,-47.93194,-19.74833,260843
Ubatuba,-45.07111,-23.43389,79007
Ubata,-39.52641,-14.20906,15604
Ubaitaba,-39.32333,-14.3125,28375
Uba,-42.94278,-21.12,97828
Tupancireta,-53.83583,-29.08056,17488
Tupaciguara,-48.705,-18.59222,24398
Tupa,-50.51361,-21.93472,62035
Tucano,-38.79084,-10.95817,31203
Tubarao,-49.00694,-28.46667,67245
Trindade,-49.48889,-16.64944,97521
Tres Rios,-43.20917,-22.11667,71944
Tres Pontas,-45.5125,-21.36667,43749
Tres Passos,-53.93194,-27.45556,17286
Tres Lagoas,-51.70338,-20.78765,78712
Tres de Maio,-54.24,-27.77333,18278
Tres Coroas,-50.77778,-29.51694,21051
Tres Coracoes,-45.25333,-21.69694,63457
Tremembe,-45.54944,-22.95833,31719
Tramandai,-50.13361,-29.98472,34734
Torres,-49.72694,-29.33528,32791
Toledo,-53.74306,-24.71361,119313
Tobias Barreto,-37.99833,-11.18389,29740
Timoteo,-42.64953,-19.58106,91722
Timbo,-49.27167,-26.82333,33765
Tijucas,-48.63361,-27.24139,22481
Tiete,-47.71472,-23.10194,32061
Teutonia,-51.80639,-29.44806,21834
Teresopolis,-42.97822,-22.4167,123979
Teofilo Otoni,-41.50528,-17.8575,101170
Teodoro Sampaio,-52.1675,-22.5325,15193
Telemaco Borba,-50.61556,-24.32389,58880
Taubate,-45.55528,-23.02639,251641
Tatui,-47.85694,-23.35556,93580
Taquarituba,-49.24444,-23.53306,21492
Taquaritinga,-48.50472,-21.40611,50098
Taquari,-51.86444,-29.79972,27107
Taquara,-50.78056,-29.65056,48051
Tapiramuta,-40.79139,-11.84722,16544
Tapes,-51.39583,-30.67333,18570
Tangua,-42.71417,-22.73028,23740
Tanabi,-49.64917,-20.62639,18227
Tambau,-47.27444,-21.705,19956
Taiobeiras,-42.23306,-15.80778,24351
Taboao da Serra,-46.79167,-23.62611,214523
Suzano,-46.31083,-23.5425,283314
Sumare,-47.26694,-22.82194,227977
Sorocaba,-47.45806,-23.50167,558862
Soledade,-52.51028,-28.81833,24791
Socorro,-46.52889,-22.59139,24272
Sobradinho,-39.1,-12.83333,19304
Simao Dias,-37.81111,-10.73833,18385
Silva Jardim,-42.39167,-22.65083,16888
Sidrolandia,-54.96139,-20.93194,16878
Sete Lagoas,-44.24667,-19.46583,201334
Sertaozinho,-47.99028,-21.13778,99211
Serrinha,-39.0075,-11.66417,49078
Serra Negra,-46.70056,-22.61222,22632
Serrana,-47.59556,-21.21139,39826
Serra,-40.30778,-20.12861,394153
Seropedica,-43.7075,-22.74389,54846
Senhor do Bonfim,-40.18944,-10.46139,48471
Senador Canedo,-49.09306,-16.70806,61800
Seabra,-41.77049,-12.41713,16764
Schroeder,-49.07306,-26.4125,15505
Saubara,-38.76861,-12.7375,15662
Sarzedo,-44.14472,-20.03528,20798
Sarandi,-52.92306,-27.94389,15158
Sarandi,-51.87389,-23.44361,84697
Saquarema,-42.51028,-22.92,62056
Sapucaia,-51.15,-29.83333,130937
Sapiranga,-51.00694,-29.63806,76051
Sao Vicente,-46.39194,-23.96306,324457
Sao Sepe,-53.56528,-30.16056,19181
Sao Sebastiao do Passe,-38.49528,-12.5125,31049
Sao Sebastiao do Paraiso,-46.99139,-20.91694,68654
Sao Sebastiao do Cai,-51.37556,-29.58667,19012
Sao Sebastiao,-45.40972,-23.76,76367
Sao Roque,-47.13528,-23.52917,50540
Sao Pedro da Aldeia,-42.10278,-22.83917,55014
Sao Pedro,-47.91389,-22.54861,27068
Sao Paulo,-46.63611,-23.5475,10021295
Sao Miguel do Iguacu,-54.23778,-25.34806,15434
Sao Miguel do Araguaia,-50.16278,-13.275,18809
Sao Mateus do Sul,-50.38278,-25.87417,24904
Sao Mateus,-39.85891,-18.72011,77117
Sao Marcos,-51.06806,-28.97111,18591
Sao Manuel,-48.57056,-22.73111,33587
Sao Luiz Gonzaga,-54.96083,-28.40833,31798
Sao Luis de Montes Belos,-50.37222,-16.525,23619
Sao Lourenco do Sul,-51.97833,-31.36528,25340
Sao Lourenco,-45.05444,-22.11639,41143
Sao Leopoldo,-51.14722,-29.76028,209229
Sao Jose dos Pinhais,-49.20836,-25.5302,124224
Sao Jose dos Campos,-45.88694,-23.17944,613764
Sao Jose do Rio Preto,-49.37944,-20.81972,374699
Sao Jose do Rio Pardo,-46.88861,-21.59556,46989
Sao Jose,-49.1632,-28.21171,200000
Sao Joaquim da Barra,-47.85472,-20.58139,42720
Sao Joaquim,-49.93167,-28.29389,16250
Sao Joao Nepomuceno,-43.01056,-21.54,23154
Sao Joao de Meriti,-43.37222,-22.80389,454849
Sao Joao del Rei,-44.26167,-21.13556,78592
Sao Joao da Boa Vista,-46.79806,-21.96917,76540
Sao Joao da Barra,-41.05111,-21.64028,20606
Sao Jeronimo,-51.72222,-29.95917,17056
Sao Gotardo,-46.04889,-19.31111,34145
Sao Goncalo do Sapucai,-45.59528,-21.89222,19487
Sao Gabriel,-54.32,-30.33639,55434
Sao Francisco do Sul,-48.63806,-26.24333,36224
Sao Francisco do Conde,-38.68,-12.6275,24614
Sao Francisco,-44.86444,-15.94861,33033
Sao Fidelis,-41.74694,-21.64611,27793
Sao Cristovao,-37.20639,-11.01472,71539
Sao Carlos,-47.89083,-22.0175,205035
Sao Caetano do Sul,-46.55111,-23.62306,136453
Sao Borja,-56.00444,-28.66056,59613
Sao Bernardo do Campo,-46.565,-23.69389,743372
Sao Bento do Sul,-49.37861,-26.25028,77597
Santos Dumont,-43.5525,-21.45667,41582
Santos,-46.33361,-23.96083,411403
Santo Estevao,-39.25139,-12.43028,27279
Santo Antonio do Monte,-45.29361,-20.08722,22592
Santo Antonio do Amparo,-44.91889,-20.94639,16730
Santo Antonio de Posse,-46.91944,-22.60611,18148
Santo Antonio de Padua,-42.18028,-21.53944,33076
Santo Antonio de Jesus,-39.26139,-12.96889,73957
Santo Antonio da Platina,-50.07722,-23.295,35260
Santo Angelo,-54.26306,-28.29917,64606
Santo Andre,-46.53833,-23.66389,662373
Santo Anastacio,-51.61028,-21.83833,17233
Santo Amaro da Imperatriz,-48.77861,-27.68806,18418
Santo Amaro,-38.71194,-12.54667,46748
Santiago,-54.86722,-29.19167,46611
Santa Vitoria do Palmar,-53.36806,-33.51889,27775
Santa Rosa de Viterbo,-47.36306,-21.47278,21473
Santa Rosa,-54.48139,-27.87083,58957
Santa Rita do Sapucai,-45.70333,-22.25222,28765
Santa Rita do Passa Quatro,-47.47806,-21.71028,24578
Santana do Paraiso,-42.56861,-19.36361,25515
Santana do Livramento,-55.53278,-30.89083,89694
Santana de Parnaiba,-46.91778,-23.44417,98989
Santa Maria da Vitoria,-44.19868,-13.38814,23488
Santa Maria,-53.80694,-29.68417,249219
Santa Luzia,-43.85139,-19.76972,243503
Santaluz,-39.37472,-11.25583,24739
Santa Isabel,-46.22139,-23.31556,33709
Santa Helena de Goias,-50.59694,-17.81361,34254
Santa Gertrudes,-47.53028,-22.45667,18490
Santa Fe do Sul,-50.92583,-20.21111,25802
Santa Cruz do Sul,-52.42583,-29.7175,106113
Santa Cruz do Rio Pardo,-49.6325,-22.89889,37336
Santa Cruz das Palmeiras,-47.24861,-21.82694,25800
Santa Cruz Cabralia,-39.02472,-16.27806,19545
Santa Cecilia,-50.42694,-26.96083,15092
Santa Barbara d'Oeste,-47.41361,-22.75361,188000
Salvador,-38.51083,-12.97111,2711840
Salto de Pirapora,-47.57333,-23.64889,32227
Salto,-47.28694,-23.20083,98387
Salinas,-42.29028,-16.17028,25746
Sacramento,-47.44,-19.86528,16982
Ruy Barbosa,-40.49389,-12.28389,21093
Rubiataba,-49.80333,-15.16444,16128
Rosario do Sul,-54.91417,-30.25833,36721
Rondonopolis,-54.63556,-16.47083,152912
Rolante,-50.57583,-29.65056,15594
Rolandia,-51.36917,-23.30972,51004
Rio Verde de Mato Grosso,-54.84417,-18.91806,16613
Rio Verde,-50.92806,-17.79806,229651
Rio Real,-37.93278,-11.48472,24005
Rio Pardo,-52.37806,-29.98972,26998
Rio Negro,-49.7975,-26.10583,23006
Rio Negrinho,-49.51833,-26.25444,41914
Rio Grande da Serra,-46.39833,-23.74417,38161
Rio Grande,-52.09861,-32.035,187838
Rio do Sul,-49.64306,-27.21417,51944
Rio de Janeiro,-43.18223,-22.90642,6023699
Rio das Pedras,-47.60611,-22.84333,23722
Rio das Ostras,-41.945,-22.52694,100000
Rio Claro,-47.56139,-22.41139,180147
Rio Brilhante,-54.54639,-21.80194,18837
Rio Branco do Sul,-49.31417,-25.19,26441
Rio Bonito,-42.60972,-22.70861,35997
Ribeirao Preto,-47.81028,-21.1775,619746
Ribeirao Pires,-46.41333,-23.71056,111888
Ribeirao das Neves,-44.08667,-19.76694,406802
Ribeirao da Ilha,-48.53219,-27.69934,21000
Ribeira do Pombal,-38.53583,-10.83444,28235
Riachao do Jacuipe,-39.38556,-11.80694,16911
Resplendor,-41.25528,-19.32556,15131
Resende,-44.44667,-22.46889,111514
Registro,-47.84361,-24.4875,45697
Regente Feijo,-51.30278,-22.22139,17218
Rancharia,-50.89306,-22.22917,25530
Quirinopolis,-50.45167,-18.44833,32104
Queimados,-43.55528,-22.71611,135741
Quatro Barras,-49.07694,-25.36556,17526
Quarai,-56.45139,-30.3875,23229
Prudentopolis,-50.97778,-25.21306,19611
Propria,-36.84028,-10.21111,23786
Promissao,-49.85806,-21.53667,27031
Presidente Venceslau,-51.84389,-21.87611,34026
Presidente Prudente,-51.38889,-22.12556,209502
Presidente Epitacio,-52.11556,-21.76333,38742
Prata,-48.92417,-19.30722,19896
Praia Grande,-46.40278,-24.00583,250027
Prado,-39.22083,-17.34111,15464
Pouso Alegre,-45.93639,-22.23,115201
Posse,-46.36944,-14.09306,20003
Porto Uniao,-51.07833,-26.23806,28907
Porto Seguro,-39.06472,-16.44972,123173
Porto Ferreira,-47.47917,-21.85389,49127
Porto Feliz,-47.52389,-23.21472,41015
Porto Alegre,-51.23019,-30.03283,1372741
Portao,-51.24194,-29.70167,21051
Porangatu,-49.14861,-13.44083,32758
Pontes e Lacerda,-59.33528,-15.22611,29381
Ponte Nova,-42.90861,-20.41639,48187
Ponta Pora,-55.72556,-22.53611,55763
Pontal,-48.03722,-21.0225,32566
Ponta Grossa,-50.16194,-25.095,292177
Pompeu,-44.93528,-19.22444,25277
Pompeia,-50.17167,-22.10861,18015
Pomerode,-49.17694,-26.74056,21898
Pocos de Caldas,-46.56139,-21.78778,146588
Pocone,-56.62278,-16.25667,21484
Pocoes,-40.36528,-14.52972,35254
Poa,-46.34472,-23.52806,107432
Planaltina,-47.61417,-15.45278,88853
Piuma,-40.72194,-20.83778,17634
Piui,-45.95806,-20.46528,27327
Pitangui,-44.89028,-19.68278,18858
Pitangueiras,-48.22167,-21.00944,28540
Pitanga,-51.76139,-24.75722,18652
Piritiba,-40.55528,-11.73028,16230
Pires do Rio,-48.27944,-17.29972,24822
Piraquara,-49.06795,-25.44227,41161
Pirapozinho,-51.5,-22.27528,21709
Pirapora,-44.94194,-17.345,51656
Pirajui,-49.45722,-21.99861,17503
Piraju,-49.38389,-23.19361,25270
Pirai do Sul,-49.94861,-24.52611,16409
Pirai,-43.89806,-22.62917,19105
Pirassununga,-47.42583,-21.99611,60413
Piracicaba,-47.64917,-22.72528,342209
Piracanjuba,-49.01667,-17.30278,16736
Piracaia,-46.35806,-23.05389,26075
Pinheiral,-44.00056,-22.51278,19469
Pinhao,-51.65972,-25.69556,15141
Espirito Santo do Pinhal,-46.68278,-22.11583,37448
Pindobacu,-40.36083,-10.74167,17229
Pindamonhangaba,-45.46167,-22.92389,132218
Pilar do Sul,-47.71639,-23.81306,19107
Piedade,-47.42778,-23.71194,27912
Petropolis,-43.17861,-22.505,272691
Peruibe,-46.99833,-24.32,63030
Pereira Barreto,-51.10917,-20.63833,22537
Perdoes,-45.09139,-21.09083,17821
Penha,-48.64583,-26.76944,20096
Penedo,-36.58639,-10.29028,42097
Penapolis,-50.0775,-21.41972,54477
Pelotas,-52.34101,-31.76997,320674
Pedro Leopoldo,-44.04306,-19.61806,49261
Pedreira,-46.90139,-22.74194,39198
Pedra Azul,-41.29722,-16.00528,20899
Pederneiras,-48.775,-22.35167,38020
Paulinia,-47.15417,-22.76111,65595
Patrocinio,-46.9925,-18.94389,71963
Patos de Minas,-46.51806,-18.57889,126234
Pato Branco,-52.67056,-26.22861,65754
Paty do Alferes,-43.41861,-22.42861,20659
Posto da Mata,-39.85593,-17.88828,22168
Passos,-46.60972,-20.71889,98752
Passo Fundo,-52.40667,-28.26278,179529
Parobe,-50.83472,-29.62861,48559
Paraty,-44.71306,-23.21778,15118
Paranavai,-52.46528,-23.07306,72848
Paranapanema,-48.72441,-23.3863,16215
Paranaiba,-51.19083,-19.67722,32217
Paranagua,-48.52537,-25.51626,141013
Paraiba do Sul,-43.29321,-22.15847,35517
Paraguacu Paulista,-50.57583,-22.41278,39120
Paraguacu,-45.7375,-21.54722,15741
Para de Minas,-44.60833,-19.86028,75786
Paracatu,-46.87472,-17.22222,70753
Paracambi,-43.7084,-22.60829,36098
Panambi,-53.50167,-28.2925,30407
Palotina,-53.84,-24.28389,23059
Palmital,-50.2175,-22.78889,18539
Palmeira das Missoes,-53.31361,-27.89944,30954
Palmeira,-50.00639,-25.42944,18630
Palmas,-51.99056,-26.48417,39150
Palhoca,-48.66778,-27.64528,122423
Paicandu,-52.04861,-23.4575,34365
Padre Bernardo,-48.28281,-15.16595,16118
Ouro Preto,-43.50517,-20.39484,63678
Ouro Branco,-43.69486,-20.52334,26687
Ourinhos,-49.87056,-22.97889,97799
Osvaldo Cruz,-50.87861,-21.79667,25746
Osorio,-50.26972,-29.88667,34628
Osasco,-46.79167,-23.5325,677856
Orleans,-49.29139,-28.35889,16422
Orlandia,-47.88667,-20.72028,44766
Oliveira,-44.82722,-20.69639,34710
Olimpia,-48.91472,-20.73722,45199
Novo Horizonte,-49.22083,-21.46806,30158
Novo Hamburgo,-51.13056,-29.67833,253841
Nova Vicosa,-39.37194,-17.89194,20097
Nova Venecia,-40.40056,-18.71056,28362
Nova Prata,-51.61,-28.78389,17943
Nova Petropolis,-51.11444,-29.37639,16049
Nova Olimpia,-57.28806,-14.79722,19274
Nova Odessa,-47.29583,-22.7775,49432
Nova Lima,-43.84667,-19.98556,88399
Nova Iguacu,-43.45111,-22.75917,1002118
Nova Granada,-49.31417,-20.53389,15715
Nova Friburgo,-42.53111,-22.28194,153361
Nova Era,-43.0375,-19.75,15595
Nossa Senhora do Socorro,-37.12611,-10.855,163993
Nossa Senhora da Gloria,-37.42028,-10.21833,18612
Niteroi,-43.10361,-22.88333,456456
Niquelandia,-48.45972,-14.47389,27541
Nilopolis,-43.41389,-22.8075,147281
Neropolis,-49.21861,-16.40639,21870
Nepomuceno,-45.23488,-21.23342,18911
Nazare,-39.01444,-13.035,25604
Navirai,-54.19056,-23.065,36452
Navegantes,-48.65417,-26.89889,47781
Nanuque,-40.35389,-17.83917,37824
Muzambinho,-46.52556,-21.37583,16253
Muritiba,-39.25,-12.91667,22388
Muriae,-42.36639,-21.13056,91173
Mucuri,-39.55083,-18.08639,26775
Morro do Chapeu,-41.15804,-11.54852,21670
Morro Agudo,-48.05778,-20.73139,25265
Morrinhos,-49.09944,-17.73111,34143
Montes Claros,-43.86167,-16.735,332379
Monte Santo de Minas,-46.98028,-21.18972,16617
Montenegro,-51.46111,-29.68861,54057
Monte Mor,-47.31583,-22.94667,40290
Monte Carmelo,-47.49861,-18.72472,44041
Monte Azul Paulista,-48.64139,-20.90722,18117
Monte Aprazivel,-49.71417,-20.7725,16308
Monte Alto,-48.49639,-21.26111,41893
Mongagua,-46.62083,-24.09306,45930
Mogi Mirim,-46.95778,-22.43194,78244
Mogi Guacu,-46.94552,-22.3677,128865
Mogi das Cruzes,-46.18833,-23.52278,325746
Mococa,-47.00472,-21.46778,59654
Mirandopolis,-51.10167,-21.13361,23378
Miracema,-42.19667,-21.41222,26684
Mineiros,-52.55111,-17.56944,38951
Miguel Pereira,-43.46889,-22.45389,23850
Miguelopolis,-48.03194,-20.17944,18262
Mendes,-43.73278,-22.52667,17308
Medianeira,-54.09389,-25.29528,34069
Medeiros Neto,-40.22056,-17.37389,15254
Maua,-46.46139,-23.66778,386069
Matozinhos,-44.08139,-19.55778,30843
Mateus Leme,-44.42778,-19.98639,24890
Matao,-48.36583,-21.60333,72468
Mata de Sao Joao,-38.29917,-12.53028,26679
Mascote,-39.3025,-15.56306,18863
Martinopolis,-51.17083,-22.14583,18488
Maringa,-51.93861,-23.42528,311724
Marilia,-49.94583,-22.21389,212218
Marica,-42.81861,-22.91944,79551
Mariana,-43.41611,-20.37778,45236
Marialva,-51.79167,-23.485,26000
Marechal Candido Rondon,-54.05667,-24.55611,43028
Marau,-52.2,-28.44917,26860
Marataizes,-40.82444,-21.04333,25397
Maragogipe,-38.91944,-12.77778,20921
Maracas,-40.43083,-13.44111,22049
Maracaju,-55.16833,-21.61444,22690
Manhumirim,-41.95806,-20.35778,15544
Manhuacu,-42.03361,-20.25806,54607
Mangaratiba,-44.04056,-22.95972,27022
Mandaguari,-51.67083,-23.5475,38238
Mairipora,-46.58667,-23.31861,54415
Mairinque,-47.18333,-23.54583,44456
Mafra,-49.80528,-26.11139,40081
Machado,-45.91972,-21.67472,33002
Macatuba,-48.71139,-22.50222,16179
Macae,-41.78324,-22.38484,143029
Luziania,-47.95028,-16.2525,143601
Lucas,-55.93333,-16.33333,27665
Louveira,-46.95056,-23.08639,31093
Lorena,-45.12472,-22.73083,76506
Londrina,-51.16278,-23.31028,471832
Loanda,-53.13722,-22.92306,18233
Livramento do Brumado,-41.84564,-13.65145,19914
Lins,-49.7425,-21.67861,69451
Linhares,-40.07222,-19.39111,105075
Limeira,-47.40167,-22.56472,289665
Leopoldina,-42.64306,-21.53194,46742
Lencois Paulista,-48.80028,-22.59861,57375
Leme,-47.39028,-22.18556,81209
Lavras,-44.99972,-21.24528,81472
Laranjeiras do Sul,-52.41611,-25.40778,18424
Laranjeiras,-37.17,-10.80639,23251
Laranjal Paulista,-47.83667,-23.04972,21264
Lapa,-49.71583,-25.76972,25621
Lajinha,-41.62278,-20.15139,15729
Lages,-50.32611,-27.81611,164676
Lajeado,-51.96139,-29.46694,65407
Laguna,-48.78083,-28.4825,39711
Lagoa Vermelha,-51.52583,-28.20861,24445
Lagoa Santa,-43.9009,-19.63006,38486
Lagoa da Prata,-45.54361,-20.0225,43118
Lagarto,-37.65,-10.91722,45445
Ladario,-57.60167,-19.00472,15790
Jundiai,-46.88417,-23.18639,321589
Julio de Castilhos,-53.68167,-29.22694,20388
Juiz de Fora,-43.35028,-21.76417,470193
Juatuba,-44.34278,-19.95194,24537
Jose Bonifacio,-49.68833,-21.05278,27828
Joinville,-48.84556,-26.30444,461304
Joao Pinheiro,-46.1725,-17.7425,28080
Joao Monlevade,-43.17361,-19.81,72762
Joacaba,-51.50472,-27.17806,23516
Jeremoabo,-38.48083,-10.075,16642
Jequitinhonha,-41.00333,-16.43389,15463
Jequie,-40.08512,-13.85875,127475
Jau,-48.55778,-22.29639,119206
Jatai,-51.72166,-17.87939,76547
Jarinu,-46.72833,-23.10139,17899
Jardinopolis,-47.76389,-21.01778,34718
Jardim,-56.13806,-21.48028,23780
Jaragua do Sul,-49.06667,-26.48611,130130
Jaragua,-49.33444,-15.75694,30409
Japeri,-43.65333,-22.64306,95101
Januaria,-44.35988,-15.48866,34811
Jandira,-46.9025,-23.5275,113605
Jandaia do Sul,-51.64333,-23.60306,17507
Janauba,-43.30889,-15.8025,56572
Jales,-50.54583,-20.26889,43831
Jaguariuna,-46.98583,-22.70556,31717
Jaguariaiva,-49.70932,-24.24423,30626
Jaguarari,-40.19583,-10.26389,22612
Jaguarao,-53.37583,-32.56611,29613
Jaguaquara,-39.97083,-13.53056,41498
Jacutinga,-46.61222,-22.28556,18469
Jacobina,-40.51372,-11.18143,47637
Jaciara,-54.96833,-15.96528,22737
Jacarezinho,-49.96944,-23.16056,35090
Jacarei,-45.96583,-23.30528,213110
Jaboticabal,-48.32222,-21.25472,69394
Ivoti,-51.16056,-29.59111,18171
Ituverava,-47.78056,-20.33944,36997
Iturama,-50.19556,-19.72806,29805
Itupeva,-47.05778,-23.15306,20605
Itumbiara,-49.21528,-18.41917,79582
Ituiutaba,-49.46212,-18.97428,85345
Itubera,-39.14785,-13.73538,19887
Itu,-47.29917,-23.26417,137586
Itororo,-40.07028,-15.11694,17324
Itauna,-44.57639,-20.07528,77400
Itatinga,-48.61583,-23.10167,15696
Itatiba,-46.83889,-23.00583,67934
Itarare,-49.33167,-24.1125,44809
Itaqui,-56.55306,-29.12528,34631
Itaquaquecetuba,-46.34833,-23.48611,336679
Itapuranga,-49.94861,-15.56222,19709
Itapolis,-48.81278,-21.59556,34552
Itapira,-46.82167,-22.43611,61607
Itapevi,-46.93417,-23.54889,201748
Itapeva,-48.87556,-23.98222,62957
Itapetininga,-48.05306,-23.59167,126243
Itapetinga,-40.24778,-15.24889,59721
Itaperuna,-41.88778,-21.205,84435
Itaperucu,-49.34778,-25.22,26546
Itapemirim,-40.83389,-21.01111,17536
Itapema,-48.61139,-27.09028,36761
Itapecerica da Serra,-46.84917,-23.71694,151605
Itapecerica,-45.12556,-20.4725,16684
Itaparica,-38.67861,-12.88833,20100
Itapaci,-49.54944,-14.95083,16117
Itaocara,-42.07611,-21.66917,16762
Itanhaem,-46.78889,-24.18306,90385
Itambe,-40.62444,-15.245,23558
Itamarandiba,-42.85889,-17.85722,18063
Itamaraju,-39.53111,-17.03917,47628
Itajuipe,-39.375,-14.67806,15516
Itajuba,-45.45278,-22.42556,81870
Itajai,-48.66194,-26.90778,155716
Itai,-49.09056,-23.41778,22304
Itaguai,-43.77528,-22.85222,100752
Itabuna,-39.28028,-14.78556,205660
Itaborai,-42.85944,-22.74444,182498
Itabirito,-43.80139,-20.25333,39452
Itabira,-43.22694,-19.61917,99496
Itaberai,-49.81028,-16.02028,22129
Itaberaba,-40.30694,-12.5275,47301
Itabaianinha,-37.79,-11.27389,17149
Itabaiana,-37.42528,-10.685,63888
Irece,-41.85583,-11.30417,63626
Irati,-50.65111,-25.46722,45830
Iracemapolis,-47.51861,-22.58056,16795
Ipora,-51.11778,-16.44194,28254
Ipira,-39.73722,-12.15833,27217
Ipiau,-39.73948,-14.13449,38762
Ipero,-47.68861,-23.35028,17160
Ipatinga,-42.53667,-19.46833,228746
Ipameri,-48.15972,-17.72194,18607
Ipaba,-42.41944,-19.41361,15970
Inhumas,-49.49611,-16.35778,44058
Indaiatuba,-47.2119,-23.08842,179911
Indaial,-49.23167,-26.89778,44359
Imbituva,-50.60444,-25.23,19671
Imbituba,-48.67028,-28.24,43450
Ilheus,-39.03949,-14.79364,155499
Ilha Solteira,-51.3425,-20.43278,24997
Ilhabela,-45.35806,-23.77806,32892
Ijui,-53.91472,-28.38778,71202
Iguape,-47.55528,-24.70806,23784
Igrejinha,-50.79028,-29.57444,28679
Igarape,-44.30167,-20.07028,21427
Igarapava,-47.74694,-20.03833,29057
Igaracu do Tiete,-48.55778,-22.50917,22758
Icara,-49.3,-28.71333,51454
Ibotirama,-43.22056,-12.18528,17354
Ibiuna,-47.2225,-23.65639,22860
Ibitinga,-48.82889,-21.75778,49074
Ibirite,-44.05889,-20.02194,141374
Ibirataia,-39.64056,-14.06694,19942
Ibirama,-49.51778,-27.05694,18357
Ibipora,-51.04806,-23.26917,44790
Ibicarai,-39.5875,-14.865,19574
Ibia,-46.53889,-19.47833,18428
Ibate,-47.99667,-21.95472,29550
Ibaiti,-50.18778,-23.84861,25796
Iacu,-40.21167,-12.76722,22664
Hortolandia,-47.22,-22.85833,203533
Herval,-53.39556,-32.02361,18063
Gurupi,-49.06861,-11.72917,64789
Guaxupe,-46.71278,-21.30528,47889
Guarulhos,-46.53333,-23.46278,1169577
Guaruja,-46.25639,-23.99306,310424
Guariba,-48.22833,-21.36,30464
Guaratuba,-48.57472,-25.88278,18906
Guaratingueta,-45.1925,-22.81639,105880
Guararema,-46.035,-23.415,23572
Guararapes,-50.64278,-21.26083,27557
Guarapuava,-51.46541,-25.39048,150850
Guarapari,-40.50196,-20.67182,100925
Guaranesia,-46.8025,-21.29917,17437
Guaramirim,-49.00278,-26.47306,21422
Guara,-47.82417,-20.42833,18263
Guapore,-51.89028,-28.84556,20050
Guapimirim,-42.98194,-22.53722,31202
Guanhaes,-42.9325,-18.775,23727
Guanambi,-42.78139,-14.22333,58877
Guaira,-48.31056,-20.31833,34092
Guacui,-41.67944,-20.77556,19786
Gravatai,-50.99278,-29.94218,238778
Governador Valadares,-41.94944,-18.85111,250878
Goiatuba,-49.35472,-18.0125,25925
Goias,-50.14028,-15.93444,19098
Goianira,-49.42639,-16.49611,22822
Goiania,-49.25389,-16.67861,1171195
Goianesia,-49.1175,-15.3175,47883
Gaspar,-48.95889,-26.93139,33658
Garibaldi,-51.53361,-29.25611,30364
Garca,-49.65611,-22.21056,41302
Gandu,-39.48667,-13.74389,21565
Frutal,-48.94056,-20.02472,40931
Frederico Westphalen,-53.39444,-27.35917,20896
Franco da Rocha,-46.72694,-23.32167,108858
Francisco Morato,-46.74528,-23.28167,171790
Francisco Beltrao,-53.055,-26.08111,57618
Franca,-47.40083,-20.53861,305041
Foz do Iguacu,-54.58806,-25.54778,293523
Forquilhinha,-49.47222,-28.7475,22998
Formosa,-47.33444,-15.53722,81232
Formiga,-45.42639,-20.46444,56404
Florianopolis,-48.54917,-27.59667,412724
Flores da Cunha,-51.18167,-29.02889,20521
Ferraz de Vasconcelos,-46.36861,-23.54083,167900
Fernandopolis,-50.24639,-20.28389,61931
Feira de Santana,-38.96667,-12.26667,619609
Farroupilha,-51.34778,-29.225,57650
Eunapolis,-39.58028,-16.3775,114275
Euclides da Cunha,-39.01583,-10.5075,29738
Estrela,-50.93833,-28.06111,24200
Esteio,-51.17917,-29.86139,84902
Estancia Velha,-51.17389,-29.64833,40390
Estancia,-37.43833,-11.26833,55654
Esplanada,-37.945,-11.79611,18859
Espinosa,-42.81917,-14.92611,17548
Esmeraldas,-44.31389,-19.7625,103206
Erechim,-52.2754,-27.63461,96087
Entre Rios,-38.08444,-11.94194,27405
Encruzilhada do Sul,-52.52194,-30.54389,17199
Encantado,-51.86972,-29.23611,16637
Embu Guacu,-46.81139,-23.83222,76310
Embu,-46.85222,-23.64889,221733
Eloi Mendes,-45.56528,-21.61,19413
Duque de Caxias,-43.31167,-22.78556,818329
Dourados,-54.80556,-22.22111,162202
Dom Pedrito,-54.67306,-30.98278,36911
Dois Vizinhos,-53.05722,-25.73361,22766
Dois Corregos,-48.38028,-22.36611,20974
Divinopolis,-44.89065,-20.14355,193832
Diamantino,-56.44611,-14.40861,15699
Diamantina,-43.60345,-18.24692,37343
Diadema,-46.62278,-23.68611,390633
Descalvado,-47.61944,-21.90389,26137
Curvelo,-44.43083,-18.75639,63954
Curitibanos,-50.58444,-27.28278,32141
Curitiba,-49.27306,-25.42778,1718421
Cuiaba,-56.09667,-15.59611,521934
Cubatao,-46.42528,-23.895,118410
Cruzeiro do Oeste,-53.07333,-23.785,15057
Cruzeiro,-44.97108,-22.57316,72022
Cruz das Almas,-39.10194,-12.67,47844
Cruz Alta,-53.60633,-28.64397,65275
Cristalina,-47.6153,-16.76769,36531
Criciuma,-49.36972,-28.6775,161954
Cravinhos,-47.72944,-21.34028,32689
Coxim,-54.76,-18.50667,30215
Cotia,-46.91917,-23.60389,174828
Cosmopolis,-47.19611,-22.64583,47772
Coruripe,-36.17556,-10.12556,31427
Corumba,-57.65333,-19.00917,96520
Coronel Vivida,-52.56778,-25.97972,15841
Coronel Fabriciano,-42.62889,-19.51861,100916
Coromandel,-47.20028,-18.47333,22647
Cornelio Procopio,-50.64667,-23.18111,48487
Corinto,-44.45639,-18.38083,22121
Cordeiropolis,-47.45667,-22.48194,25630
Cordeiro,-42.36083,-22.02861,15601
Contagem,-44.05361,-19.93167,627123
Conselheiro Lafaiete,-43.78611,-20.66028,111596
Congonhas,-43.8588,-20.50525,48819
Conde,-37.61056,-11.81361,15557
Concordia,-52.02778,-27.23417,55367
Conchal,-47.1725,-22.33028,21351
Conceicao do Coite,-39.28278,-11.56389,35171
Conceicao do Jacuipe,-38.76667,-12.31667,21597
Conceicao das Alagoas,-48.38833,-19.91472,16152
Conceicao da Feira,-38.99861,-12.50583,15834
Conceicao da Barra,-39.73222,-18.59333,19309
Colorado,-51.97306,-22.8375,20449
Colombo,-49.22417,-25.29167,217000
Colatina,-40.63056,-19.53944,101190
Coaraci,-39.55111,-14.64083,32344
Claudio,-44.76583,-20.44333,21824
Cicero Dantas,-38.38333,-10.6,18317
Cianorte,-52.605,-23.66333,55994
Nova Xavantina,-52.35558,-14.66463,20639
Charqueadas,-51.62528,-29.95472,32076
Chapeco,-52.61833,-27.09639,160157
Cerquilho,-47.74361,-23.165,35367
Ceres,-49.59833,-15.30833,18759
Celso Ramos,-51.33639,-27.63444,15162
Caxias do Sul,-51.17944,-29.16806,381270
Caxambu,-44.9325,-21.97722,22701
Catu,-38.37889,-12.35306,39932
Catanduva,-48.97278,-21.13778,109612
Catalao,-47.94639,-18.16583,63544
Cataguases,-42.69667,-21.38917,62618
Castro,-50.01225,-24.78927,42091
Castelo,-41.18472,-20.60361,20198
Cassilandia,-51.73417,-19.11333,18497
Casimiro de Abreu,-42.20417,-22.48056,19087
Cascavel,-53.45528,-24.95583,257172
Casa Branca,-47.08639,-21.77389,22497
Carmo do Paranaiba,-46.31611,-19.00083,26537
Carmo do Cajuru,-44.77111,-20.18417,16332
Carlos Barbosa,-51.50361,-29.2975,19105
Carazinho,-52.78639,-28.28389,59417
Caratinga,-42.13917,-19.78972,60066
Carapicuiba,-46.835,-23.52272,361112
Carangola,-42.02944,-20.73306,25321
Carandai,-43.80639,-20.95361,16657
Caraguatatuba,-45.41306,-23.62028,90843
Capivari,-47.50778,-22.995,35518
Capinzal,-51.61194,-27.34361,23795
Capim Grosso,-40.01278,-11.38111,17322
Capelinha,-42.51583,-17.69139,20073
Capela,-37.05278,-10.50333,16023
Capao da Canoa,-50.00972,-29.74556,35896
Capao Bonito,-48.34944,-24.00583,37206
Canoinhas,-50.39,-26.17722,38862
Canoas,-51.18361,-29.91778,328291
Cangucu,-52.67556,-31.395,20134
Canela,-50.81357,-29.35622,33528
Candido Mota,-50.38694,-22.74639,28144
Candelaria,-52.78889,-29.66917,30171
Canavieiras,-38.94722,-15.675,26375
Campo Verde,-54.06667,-20.41667,22806
Campos Novos,-51.225,-27.40167,22563
Campos Gerais,-45.75861,-21.235,22260
Campos do Jordao,-45.59139,-22.73944,53319
Campos Belos,-46.77167,-13.03667,15582
Campos dos Goytacazes,-41.33044,-21.75227,387417
Campo Mourao,-52.37929,-24.04309,75401
Campo Largo,-49.53014,-25.45955,94668
Campo Grande,-54.64639,-20.44278,729151
Campo Formoso,-40.32139,-10.5075,23920
Campo Belo,-45.27722,-20.89722,47491
Campinas,-47.06083,-22.90556,1031554
Campina Grande do Sul,-49.05528,-25.30556,31112
Cambui,-46.0575,-22.61222,21246
Cambe,-51.27833,-23.27583,91080
Cambara,-50.07361,-23.04639,21380
Camaqua,-51.81222,-30.85111,53169
Camanducaia,-46.14472,-22.75528,17822
Camacari,-38.32417,-12.6975,188758
Caldas Novas,-48.62789,-17.74431,63675
Cajuru,-47.30417,-21.27528,19539
Cajati,-48.12278,-24.73611,27565
Cajamar,-46.87694,-23.35611,56682
Caieiras,-46.74056,-23.36417,87188
Caetite,-42.475,-14.06944,27187
Caete,-43.66972,-19.88,33231
Cachoeiro de Itapemirim,-41.11278,-20.84889,187019
Cachoeirinha,-51.09389,-29.95111,121084
Cachoeiras de Macacu,-42.65306,-22.4625,46177
Cachoeira do Sul,-52.89389,-30.03917,74694
Cachoeira,-38.96576,-12.60139,16145
Cacapava do Sul,-53.48496,-30.51436,17522
Cacapava,-45.70694,-23.10083,72340
Cacador,-51.015,-26.77528,63726
Cabreuva,-47.13278,-23.3075,38738
Cabo Frio,-42.02622,-22.88717,108239
Butia,-51.96222,-30.11972,19494
Buritizeiro,-44.96222,-17.35111,25103
Buritis,-46.42333,-15.61778,16243
Buri,-48.59278,-23.7975,15958
Buerarema,-39.29972,-14.95944,16001
Brusque,-48.91281,-27.09795,88284
Brumado,-41.66528,-14.20361,41989
Brumadinho,-44.19972,-20.14333,27563
Brotas,-48.12667,-22.28417,18689
Brodosqui,-47.65861,-20.99139,18366
Brasilia,-47.92972,-15.77972,2207718
Braganca Paulista,-46.54418,-22.9527,125096
Braco do Norte,-49.16556,-28.275,22374
Botucatu,-48.445,-22.88583,113862
Bom Jesus do Itabapoana,-41.67972,-21.13389,30821
Bom Jesus da Lapa,-43.41806,-13.255,40691
Bom Despacho,-45.25222,-19.73639,40303
Boituva,-47.67222,-23.28333,48750
Bocaiuva,-43.815,-17.10778,32114
Boa Esperanca,-45.56583,-21.09,33840
Blumenau,-49.06611,-26.91944,293949
Biritiba Mirim,-46.03861,-23.5725,26459
Birigui,-50.34,-21.28861,102277
Biguacu,-48.65556,-27.49417,51992
Betim,-44.19833,-19.96778,384000
Bertioga,-46.13861,-23.85444,35759
Bento Goncalves,-51.51917,-29.17139,90852
Belo Oriente,-42.48361,-19.22,18470
Belo Horizonte,-43.93778,-19.92083,2373224
Belford Roxo,-43.39944,-22.76417,466096
Bela Vista,-56.52111,-22.10889,18127
Bebedouro,-48.47917,-20.94944,71862
Bauru,-49.06056,-22.31472,335024
Batatais,-47.585,-20.89111,51976
Bastos,-50.73389,-21.92194,17680
Barueri,-46.87611,-23.51056,251994
Barroso,-43.97583,-21.18694,16975
Barrinha,-48.16389,-21.19361,26981
Barretos,-48.56778,-20.55722,101220
Barreiro do Jaiba,-43.59187,-15.61532,18167
Barreiras,-44.99,-12.15278,158292
Barra Velha,-48.68472,-26.63222,17665
Barra Mansa,-44.17139,-22.54417,164052
Barra dos Coqueiros,-37.03861,-10.90889,28586
Barra do Pirai,-43.82556,-22.47,87668
Barra do Garcas,-52.25667,-15.89,52398
Barra do Bugres,-57.18111,-15.0725,31311
Barra de Sao Francisco,-40.89083,-18.755,20743
Barra Bonita,-48.55806,-22.49472,37246
Barra,-43.14167,-11.08944,20894
Bariri,-48.74028,-22.07444,28801
Barbacena,-43.77361,-21.22583,122211
Barao de Cocais,-43.48722,-19.94583,22387
Bandeirantes,-50.3675,-23.11,29494
Bambui,-45.97694,-20.00639,18840
Balneario Camboriu,-48.63472,-26.99056,49100
Baixo Guandu,-41.01583,-19.51889,19292
Bage,-54.10694,-31.33139,98940
Avare,-48.92583,-23.09861,81285
Atibaia,-46.55028,-23.11694,110968
Astorga,-51.66556,-23.2325,20128
Assis,-50.41222,-22.66167,101597
Aruja,-46.32083,-23.39611,72077
Artur Nogueira,-47.1725,-22.57306,40403
Arroio Grande,-53.08694,-32.2375,16117
Arroio do Meio,-51.945,-29.40111,16331
Arraial do Cabo,-42.02778,-22.96611,26163
Armacao de Buzios,-41.88167,-22.74694,23463
Arcos,-45.53944,-20.28194,33355
Araxa,-46.94056,-19.59333,82595
Araucaria,-49.41028,-25.59306,111302
Araruama,-42.34306,-22.87278,109637
Araras,-47.38417,-22.35694,107463
Araraquara,-48.17556,-21.79444,168468
Ararangua,-49.49538,-28.93575,43444
Arapongas,-51.42444,-23.41944,97512
Araguari,-48.18722,-18.64722,96565
Aragarcas,-52.25083,-15.8975,16781
Aracuai,-42.07028,-16.84972,22005
Aracruz,-40.27333,-19.82028,58271
Aracoiaba da Serra,-47.61417,-23.50528,15395
Araci,-38.96667,-11.33333,15088
Aracatuba,-50.43278,-21.20889,170024
Aracaju,-37.07167,-10.91111,490175
Aquidauana,-55.78722,-20.47111,35303
Apucarana,-51.46083,-23.55083,107085
Apiai,-48.8425,-24.50944,18259
Aparecida do Taboado,-51.09361,-20.08667,17332
Aparecida,-45.22972,-22.84694,34237
Antonina,-48.71194,-25.42861,16152
Anicuns,-49.96167,-16.46111,15684
Angra dos Reis,-44.31806,-23.00667,153635
Andradina,-51.37944,-20.89611,52406
Andradas,-46.56917,-22.06806,26772
Anastacio,-55.80694,-20.48361,18817
Anapolis,-48.95278,-16.32667,319587
Amparo,-46.76444,-22.70111,41497
Americo Brasiliense,-48.10167,-21.72444,34331
Americana,-47.33139,-22.73917,196022
Amargosa,-39.60472,-13.03028,22530
Alvares Machado,-51.47194,-22.07944,21642
Almirante Tamandare,-49.31,-25.32472,89499
Almenara,-40.69444,-16.18361,29333
Alfenas,-45.94722,-21.42917,71406
Alem Paraiba,-42.70444,-21.88778,33907
Alegrete,-55.79194,-29.78306,87236
Alegre,-41.53306,-20.76361,19757
Alagoinhas,-38.41917,-12.13556,122688
Aimores,-41.06389,-19.49583,19133
Agudos,-48.9875,-22.46917,30807
Aguas Vermelhas,-41.46,-15.74722,16409
Aguas de Lindoia,-46.63278,-22.47639,18805
Aguai,-46.97861,-22.05944,27503
Adamantina,-51.0725,-21.68528,31078
Abaete,-45.44583,-19.16,20370
Guaiba,-51.325,-30.11389,101024
Palmas,-48.32766,-10.16745,196272
Tefe,-64.72054,-3.36841,44942
Tarauaca,-70.76556,-8.16139,16526
Tabatinga,-69.93858,-4.23116,28229
Sena Madureira,-68.67245,-9.06341,20516
Sao Gabriel da Cachoeira,-67.08527,-0.1181,15231
Rio Branco,-67.81,-9.97472,257642
Porto Velho,-63.90389,-8.76194,306180
Manaus,-60.025,-3.10194,1598210
Manacapuru,-60.62056,-3.29972,52459
Humaita,-63.03105,-7.51651,31206
Fonte Boa,-66.09167,-2.51389,16060
Eirunepe,-69.87361,-6.66028,17175
Cruzeiro do Sul,-72.67756,-7.62759,79819
Coari,-63.14139,-4.085,50490
Carauari,-66.89583,-4.88278,18059
Boa Vista,-60.67333,2.81972,235150
Ariquemes,-63.04083,-9.91333,58096
Aripuana,-60.63333,-9.16667,26983
Vilhena,-60.14583,-12.74056,63231
Posto Fiscal Rolim de Moura,-62.27726,-13.08271,37949
Pimenta Bueno,-61.19361,-11.6725,25762
Ouro Preto do Oeste,-62.21583,-10.74806,26683
Ji Parana,-61.95167,-10.88528,107697
Jaru,-62.46639,-10.43889,28015
Guajara Mirim,-65.33552,-10.78356,34119
Cacoal,-61.44722,-11.43861,55560
Aparecida de Goiania,-49.24389,-16.82333,510770
Campinas,-48.60694,-27.59444,20000
Jaboatao dos Guararapes,-35.01472,-8.11278,630008
Lauro de Freitas,-38.32722,-12.89444,141280
Minacu,-48.22,-13.53306,31041
Ourilandia do Norte,-51.08389,-6.75472,31921
Parauapebas,-49.90222,-6.0675,196259
Pinhais,-49.1925,-25.44472,117000
Redencao,-50.03139,-8.02861,82464
Rio Preto da Eva,-59.70172,-2.69795,24283
Simoes Filho,-38.40389,-12.78444,116662
Sinop,-55.5025,-11.86417,116013
Tucuma,-51.16111,-6.7475,38508
Xinguara,-49.9435,-7.09829,43530
Cambebba,-38.82913,-3.62092,0
Jardim Paulista,-46.66439,-23.56675,83667
Trindade,-48.52335,-27.58612,15100
Freguesia do Ribeirao da Ilha,-48.56266,-27.71773,21000
Planaltina,-47.64874,-15.61791,189412
Sao Pedro,-42.96612,-22.42313,20424
Alvorada,-51.0781,-29.9904,209213
Nassau,-77.34306,25.05823,227940
Lucaya,-78.66667,26.53333,46525
Freeport,-78.7,26.53333,26910
Thimphu,89.64191,27.46609,98676
Punakha,89.87743,27.59137,21500
Phuntsholing,89.38837,26.85164,17043
Tsirang,90.12291,27.0219,18667
Tonota,27.46153,-21.44236,17759
Thamaga,25.53975,-24.67014,20756
Serowe,26.71077,-22.38754,47419
Selebi-Phikwe,27.84296,-21.97895,53727
Ramotswa,25.86989,-24.87158,21450
Palapye,27.12507,-22.54605,30650
Mosopa,25.42156,-24.7718,19561
Molepolole,25.49508,-24.40659,63248
Mogoditshane,25.86556,-24.62694,43394
Mochudi,26.15,-24.41667,36962
Maun,23.41667,-19.98333,49945
Mahalapye,26.81421,-23.10407,44471
Lobatse,25.67728,-25.22435,30883
Letlhakane,25.59263,-21.41494,18136
Kanye,25.33273,-24.96675,44716
Janeng,25.55,-25.41667,16853
Gaborone,25.90859,-24.65451,208411
Francistown,27.50778,-21.17,89979
Horad Zhodzina,28.3331,54.0985,61007
Zhlobin,30.024,52.8926,73089
Vitebsk,30.2049,55.1904,342700
Vilyeyka,26.9111,54.4914,30000
Volkovysk,24.4513,53.1561,47300
Svyetlahorsk,29.7389,52.6329,71250
Stowbtsy,26.7434,53.4785,15400
Smarhon,26.3957,54.4798,36900
Slutsk,27.5597,53.0274,62228
Slonim,25.3163,53.0869,51434
Shchuchyn,24.7465,53.6014,15700
Salihorsk,27.5415,52.7876,101614
Rahachow,30.0495,53.0934,34700
Rechytsa,30.3916,52.3617,65400
Pruzhany,24.4573,52.556,19135
Polatsk,28.7856,55.4879,82258
Pinsk,26.0951,52.1229,130777
Pastavy,26.83263,55.11676,19800
Asipovichy,28.6386,53.3011,34591
Orsha,30.4172,54.5081,125347
Navapolatsk,28.5987,55.5318,108000
Novogrudok,25.8191,53.5942,29441
Minsk,27.56667,53.9,1742124
Mazyr,29.2456,52.0495,112137
Mosty,24.5387,53.4122,16102
Mar''ina Horka,28.147,53.509,20100
Maladziecna,26.854,54.3167,101300
Mahilyow,30.3449,53.9168,369200
Lyepyel',28.699,54.8814,17400
Luninyets,26.8047,52.2472,25000
Lida,25.29972,53.88333,102700
Krychaw,31.717,53.7125,27681
Kalodzishchy,27.7823,53.944,17000
Kobryn,24.3564,52.2138,50691
Kalinkavichy,29.3257,52.1323,37190
Ivatsevichy,25.3401,52.709,24200
Hrodna,23.8258,53.6884,317365
Horki,30.9863,54.2862,33897
Homyel',30.9754,52.4345,480951
Hlybokaye,27.6905,55.1384,22000
Dzyarzhynsk,27.138,53.6832,25164
Dobrush,31.31219,52.42671,19083
Bykhaw,30.2454,53.521,17500
Byaroza,24.9786,52.5314,29645
Brest,23.68775,52.09755,300715
Barysaw,28.505,54.2279,143919
Baranovichi,26.0139,53.1327,168772
Babruysk,29.2214,53.1384,220517
San Pedro,-87.9659,17.91598,17429
San Ignacio,-89.0696,17.1588,26151
Orange Walk,-88.56328,18.08124,15298
Belmopan,-88.76667,17.25,13381
Belize City,-88.19756,17.49952,61461
Abbotsford,-122.25257,49.05798,141397
Agincourt North,-79.27528,43.80418,29113
Airdrie,-114.03528,51.30011,24673
Ajax,-79.03288,43.85012,119677
Alliston,-79.86635,44.15011,18809
Alma,-71.6491,48.55009,29526
Amos,-78.11624,48.56688,17918
Aurora,-79.46632,44.00011,55445
Baie-Comeau,-68.14894,49.21679,21536
Barrie,-79.66634,44.40011,141434
Bayview Village,-79.38028,43.77639,21396
Beaconsfield,-73.86586,45.43341,19194
Belleville,-77.38277,44.16682,50716
Beloeil,-73.20568,45.56839,18927
Bendale,-79.25326,43.76681,29960
Blainville,-73.88249,45.66678,46493
Boisbriand,-73.83249,45.61678,26483
Boucherville,-73.43605,45.59104,39062
Bracebridge,-79.31633,45.03341,16010
Brampton,-79.76633,43.68341,593638
Brandon,-99.95306,49.84692,48859
Brant,-80.34967,43.1334,34415
Brantford,-80.26636,43.1334,87759
Brockville,-75.68705,44.59132,23886
Brossard,-73.46583,45.45008,69575
Burlington,-79.83713,43.38621,183314
Burnaby,-122.95263,49.26636,202799
Caledon,-79.99322,43.86544,66502
Calgary,-114.08529,51.05011,1019942
Cambridge,-80.31269,43.3601,129920
Campbell River,-125.24459,50.01634,33430
Camrose,-112.83525,53.01684,18742
Candiac,-73.51587,45.38338,15947
Chambly,-73.28246,45.45008,22608
Charlottetown,-63.1256,46.23459,42402
Chateauguay,-73.74919,45.38338,42786
Chatham,-82.18494,42.41224,43550
Chilliwack,-121.95257,49.16638,77000
Clarence-Rockland,-75.29101,45.5501,20790
Cliffcrest,-79.23091,43.72192,15935
Cobourg,-78.16515,43.95977,18099
Cochrane,-114.46871,51.18341,25853
Collingwood,-80.21638,44.4834,21793
Colwood,-123.48591,48.43293,16859
Conception Bay South,-52.99806,47.49989,17087
Coquitlam,-122.78217,49.2846,140000
Corner Brook,-57.95202,48.95001,18693
Cornwall,-74.72815,45.01809,48821
Cote-Saint-Luc,-73.66585,45.46536,31395
Courtenay,-124.9936,49.68657,25599
Cranbrook,-115.76879,49.49991,20047
Dartmouth,-63.57719,44.67134,101343
Delta,-122.9068,49.14399,101668
Deux-Montagnes,-73.90168,45.53455,17402
Dieppe,-64.68735,46.07844,27304
Dollard-Des Ormeaux,-73.82419,45.49452,48930
Dorset Park,-79.28215,43.75386,25003
Dorval,-73.75335,45.4473,18980
Drummondville,-72.48241,45.88336,59489
Duncan,-123.70266,48.78293,22199
East Gwillimbury,-79.43785,44.10087,23991
Edmonton,-113.46871,53.55014,712391
Humbermede,-79.54417,43.7525,15545
Esquimalt,-123.41174,48.43569,17655
Flemingdon Park,-79.33222,43.71806,21933
Fort Erie,-78.93286,42.90012,30710
Fort McMurray,-111.38103,56.72676,66573
Fort St. John,-120.85292,56.24988,20155
Fredericton,-66.66558,45.94541,52337
Gatineau,-75.70164,45.47723,242124
Glace Bay,-59.95698,46.19695,17556
Granby,-72.73243,45.40008,66222
Grande Prairie,-118.80271,55.16667,41462
Greater Sudbury,-80.99001,46.49,157857
Greater Napanee,-76.94944,44.25012,15892
Grimsby,-79.56631,43.20011,27314
Guelph,-80.25599,43.54594,115760
Hamilton,-79.84963,43.25011,519949
Henry Farm,-79.3524,43.76952,15723
Hillcrest Village,-79.35442,43.80486,16934
Huntsville,-79.21632,45.33341,19816
Joliette,-73.4236,46.0164,34772
Kamloops,-120.3192,50.66648,90280
Kanata,-75.91606,45.3001,90000
Kelowna,-119.48568,49.88307,142146
Kennedy Park,-79.26052,43.72267,17123
Kenora,-94.48985,49.76741,15096
Keswick,-79.46632,44.25011,21000
Kingston,-76.48098,44.22976,114195
Kirkland,-73.86586,45.45008,20491
Kitchener,-80.5112,43.42537,233700
Langford,-123.50261,48.44963,35342
Langley,-122.65883,49.10107,23606
La Prairie,-73.49917,45.41678,23357
L'Assomption,-73.4294,45.82318,15906
Laval,-73.692,45.56995,422993
Leamington,-82.59981,42.05009,32991
Leduc,-113.55201,53.26682,15561
Les Coteaux,-74.23254,45.28338,17396
Lethbridge,-112.81856,49.69999,70617
Lindsay,-78.73286,44.35012,20354
Lloydminster,-110.02256,53.27237,31400
London,-81.23304,42.98339,346765
Longueuil,-73.51806,45.53121,229330
Lutes Mountain,-64.90504,46.13544,16311
Magog,-72.14909,45.26678,15550
Malvern,-79.22344,43.80938,43794
Maple Ridge,-122.60193,49.21939,82256
Markham,-79.2663,43.86682,328966
Mascouche,-73.59956,45.74965,34626
Medicine Hat,-110.67661,50.03928,63138
Midland,-79.88296,44.7501,24353
Milliken,-79.29872,43.82499,26572
Milton,-79.88294,43.51681,101715
Mimico,-79.51269,43.61616,33964
Mirabel,-74.08251,45.65008,34626
Miramichi,-65.50186,47.02895,17537
Mission,-122.30258,49.13298,33261
Mississauga,-79.6583,43.5789,668549
Moncton,-64.7965,46.09454,108620
Montreal,-73.58781,45.50884,1600000
Mont-Royal,-73.64918,45.51675,18933
Mont-Saint-Hilaire,-73.1868,45.56515,15720
Moose Jaw,-105.53445,50.40005,33890
Mount Pearl,-52.78135,47.51659,23120
Nanaimo,-123.94003,49.16638,90504
Nepean,-75.7225,45.33619,180000
New Glasgow,-62.64863,45.58344,18665
Newmarket,-79.46631,44.05011,84224
New Westminster,-122.91092,49.20678,58549
Niagara Falls,-79.06627,43.10012,82000
Niagara-on-the-Lake,-79.08527,43.25655,17511
Norfolk County,-80.38297,42.8334,60847
North Battleford,-108.2967,52.77972,19440
North Bay,-79.46633,46.3168,50396
North Cowichan,-123.68596,48.84133,29676
North Vancouver,-123.06934,49.31636,48000
Notre-Dame-de-Grace,-73.61432,45.47675,67000
Oak Bay,-123.3026,48.44964,18015
Oakville,-79.68292,43.45011,193832
Oakwood Village,-79.43833,43.68278,21210
Orangeville,-80.09967,43.9168,30734
Orillia,-79.42068,44.60868,31166
Oshawa,-78.84957,43.90012,166000
Ottawa,-75.69812,45.41117,812129
Owen Sound,-80.94349,44.56717,21341
Penticton,-119.58584,49.48062,33761
Petawawa,-77.28007,45.89452,17187
Peterborough,-78.31623,44.30012,81032
Pickering,-79.13289,43.90012,91771
Pitt Meadows,-122.68965,49.22119,18573
Pointe-Claire,-73.81669,45.44868,30161
Port Alberni,-124.8028,49.24133,20712
Port Colborne,-79.23288,42.90012,18306
Port Coquitlam,-122.76932,49.26637,58000
Port Moody,-122.82457,49.28124,27512
Prince Albert,-105.76772,53.20008,35102
Prince Edward,-77.24946,44.00012,25496
Prince George,-122.75301,53.9166,74003
Quinte West,-77.56618,44.18342,43577
Red Deer,-113.802,52.26682,73593
Regina,-104.6178,50.45008,176183
Repentigny,-73.45008,45.74222,84965
Richmond,-123.13683,49.17003,198309
Richmond Hill,-79.43725,43.87111,195022
Rock Forest,-71.99676,45.35699,35500
Rouge,-79.16571,43.80406,46496
Rouyn-Noranda,-79.02311,48.23656,23504
Saguenay,-71.06573,48.41675,143692
Saint-Basile-le-Grand,-73.28246,45.53338,15605
Saint-Bruno-de-Montarville,-73.34916,45.53341,24388
Saint-Constant,-73.56588,45.36678,27359
Sainte-Catherine,-73.58248,45.40008,16762
Sainte-Catherine,-72.56632,46.31836,16211
Sainte-Julie,-73.33246,45.58338,29019
Sainte-Therese,-73.82757,45.63922,25224
Saint-Eustache,-73.90554,45.565,42062
Saint-Hyacinthe,-72.95699,45.63076,50326
Saint-Jean-sur-Richelieu,-73.26259,45.30713,98036
Saint-Jerome,-74.00365,45.78036,54948
Saint John,-66.05616,45.27076,67575
Saint-Laurent,-73.66585,45.50008,77391
Saint-Lazare,-74.13256,45.40008,19889
Saint-Leonard,-73.59501,45.58773,73423
Saint-Lin-Laurentides,-73.76588,45.85008,17463
Salaberry-de-Valleyfield,-74.13253,45.25008,42410
Sarnia,-82.40407,42.97866,72125
Saskatoon,-106.66892,52.13238,198958
Sault Ste. Marie,-84.33325,46.51677,66313
Scarborough Village,-79.22124,43.73899,16724
Sept-Iles,-66.38208,50.20011,28534
Shawinigan,-72.74913,46.56675,38211
Sherbrooke,-71.89908,45.40008,129447
Sherwood Park,-113.3187,53.51684,70618
Sorel-Tracy,-73.11358,46.04178,41629
Spruce Grove,-113.91874,53.53344,36135
Squamish,-123.15631,49.69925,17587
St. Albert,-113.63533,53.63344,57719
St. Catharines,-79.24267,43.17126,133113
Steeles,-79.33082,43.81205,24623
Steinbach,-96.68451,49.52579,15829
Stratford,-80.94972,43.36679,31465
St. Thomas,-81.18038,42.77361,38909
Surrey,-122.82509,49.10635,394976
Swift Current,-107.80135,50.28337,16604
Tam O'Shanter-Sullivan,-79.29502,43.77977,27446
Tecumseh,-82.89983,42.31678,23229
Terrace,-128.60345,54.51634,19443
Terrebonne,-73.64732,45.70004,111575
The Beaches,-79.29539,43.67372,21567
Thorold,-79.19958,43.11682,18801
Thunder Bay,-89.25018,48.38202,107909
Timmins,-81.33312,48.46686,41788
Toronto,-79.4163,43.70011,2600000
Trois-Rivieres,-72.5477,46.34515,119693
Tsawwassen,-123.08333,49.01667,21588
Uxbridge,-79.11628,44.10012,21176
Val-d'Or,-77.79737,48.0974,25541
Vancouver,-123.11934,49.24966,600000
Vanier,-75.66498,45.4399,17000
Varennes,-73.43246,45.68338,20994
Vaudreuil-Dorion,-74.03251,45.40008,25789
Vaughan,-79.49827,43.8361,306233
Vernon,-119.27337,50.26729,40116
Vernon Lake,-126.36157,50.0261,48073
Victoria,-123.35155,48.4359,289625
Victoriaville,-71.96579,46.05007,34426
Wasaga Beach,-80.01637,44.5168,20675
Waterloo,-80.51639,43.4668,104986
Welland,-79.24958,42.98342,52293
West End,-123.13333,49.28333,47200
West Hill,-79.1795,43.76737,27392
Westmount,-73.59918,45.48341,20494
Weston,-79.51513,43.70359,17992
Whitehorse,-135.05375,60.71611,23272
White Rock,-122.79507,49.02049,66450
Windsor,-83.01654,42.30008,278013
Winnipeg,-97.14704,49.8844,632063
Woburn,-79.22773,43.76657,53485
Woodstock,-80.7497,43.13339,40404
Yellowknife,-114.37248,62.45411,19569
